{
  "key": "dublin",
  "prefix": "dub",
  "label": "Dublin",
  "bbox": "migrated",
  "defaultDrink": "Pint of Guinness",
  "scrapedAt": "2026-04-03T08:03:05.797Z",
  "barCount": 654,
  "bars": [
    {
      "id": "dub-001",
      "city": "dublin",
      "name": "Le Monde Café Bar",
      "address": "21 Store Street",
      "lat": 53.3502,
      "lng": -6.2528,
      "drink": "Pint of Guinness",
      "par": 3,
      "type": "kneipe",
      "tags": [
        "kneipe"
      ]
    },
    {
      "id": "dub-002",
      "city": "dublin",
      "name": "The Old Punch Bowl",
      "address": "116 Rock Road",
      "lat": 53.3088,
      "lng": -6.1967,
      "drink": "Pint of Guinness",
      "par": 3,
      "type": "kneipe",
      "tags": [
        "kneipe",
        "food"
      ]
    },
    {
      "id": "dub-003",
      "city": "dublin",
      "name": "Palmerstown House",
      "address": "Old Lucan Road",
      "lat": 53.3564,
      "lng": -6.3706,
      "drink": "Pint of Guinness",
      "par": 3,
      "type": "kneipe",
      "tags": [
        "kneipe",
        "food"
      ]
    },
    {
      "id": "dub-004",
      "city": "dublin",
      "name": "Silver Granite",
      "address": "Address unknown",
      "lat": 53.3501,
      "lng": -6.3774,
      "drink": "Pint of Guinness",
      "par": 3,
      "type": "kneipe",
      "tags": [
        "kneipe"
      ]
    },
    {
      "id": "dub-005",
      "city": "dublin",
      "name": "The Barge",
      "address": "42 Charlemont Street",
      "lat": 53.3306,
      "lng": -6.2606,
      "drink": "Pint of Guinness",
      "par": 3,
      "type": "kneipe",
      "tags": [
        "kneipe"
      ]
    },
    {
      "id": "dub-006",
      "city": "dublin",
      "name": "Marino House (Kavanagh's)",
      "address": "16 Malahide Road",
      "lat": 53.3658,
      "lng": -6.2288,
      "drink": "Pint of Guinness",
      "par": 3,
      "type": "kneipe",
      "tags": [
        "kneipe"
      ]
    },
    {
      "id": "dub-007",
      "city": "dublin",
      "name": "The Clubhouse",
      "address": "Address unknown",
      "lat": 53.3082,
      "lng": -6.2271,
      "drink": "Craft Beer",
      "par": 3,
      "type": "szene",
      "tags": [
        "szene"
      ]
    },
    {
      "id": "dub-008",
      "city": "dublin",
      "name": "The Lower Deck",
      "address": "3 Portobello Harbour",
      "district": "portabello",
      "lat": 53.3307,
      "lng": -6.2652,
      "drink": "Pint of Guinness",
      "par": 3,
      "type": "kneipe",
      "tags": [
        "kneipe"
      ]
    },
    {
      "id": "dub-009",
      "city": "dublin",
      "name": "Arlington Bar & Restaurant",
      "address": "23-25 Bachelors Walk",
      "lat": 53.3473,
      "lng": -6.2609,
      "drink": "Pint of Guinness",
      "par": 3,
      "type": "kneipe",
      "tags": [
        "kneipe",
        "food"
      ]
    },
    {
      "id": "dub-010",
      "city": "dublin",
      "name": "Fallon’s",
      "address": "129 The Coombe",
      "lat": 53.339,
      "lng": -6.2734,
      "drink": "Pint of Guinness",
      "par": 3,
      "type": "kneipe",
      "tags": [
        "kneipe"
      ]
    },
    {
      "id": "dub-011",
      "city": "dublin",
      "name": "The Wind Jammer",
      "address": "18 Lombard Street East",
      "lat": 53.3453,
      "lng": -6.2483,
      "drink": "Pint of Guinness",
      "par": 3,
      "type": "kneipe",
      "tags": [
        "kneipe"
      ]
    },
    {
      "id": "dub-012",
      "city": "dublin",
      "name": "Bugler's Pub",
      "address": "Ballyboden Road",
      "lat": 53.2841,
      "lng": -6.2954,
      "drink": "Pint of Guinness",
      "par": 3,
      "type": "kneipe",
      "tags": [
        "kneipe"
      ]
    },
    {
      "id": "dub-013",
      "city": "dublin",
      "name": "Harkin’s",
      "address": "6 Echlin Street",
      "lat": 53.3425,
      "lng": -6.2885,
      "drink": "Pint of Guinness",
      "par": 3,
      "type": "kneipe",
      "tags": [
        "kneipe",
        "outdoor",
        "food"
      ]
    },
    {
      "id": "dub-014",
      "city": "dublin",
      "name": "Vaughan’s Eagle House",
      "address": "105-107 Terenure Road North",
      "lat": 53.3101,
      "lng": -6.2832,
      "drink": "Pint of Guinness",
      "par": 3,
      "type": "kneipe",
      "tags": [
        "kneipe"
      ]
    },
    {
      "id": "dub-015",
      "city": "dublin",
      "name": "Brady’s",
      "address": "5-9 Terenure Place",
      "lat": 53.3098,
      "lng": -6.2841,
      "drink": "Pint of Guinness",
      "par": 3,
      "type": "kneipe",
      "tags": [
        "kneipe"
      ]
    },
    {
      "id": "dub-016",
      "city": "dublin",
      "name": "Padraig Pearse",
      "address": "81 Pearse Street",
      "lat": 53.3433,
      "lng": -6.2447,
      "drink": "Pint of Guinness",
      "par": 3,
      "type": "kneipe",
      "tags": [
        "kneipe"
      ]
    },
    {
      "id": "dub-017",
      "city": "dublin",
      "name": "Sin É",
      "address": "14 Ormond Quay Upper",
      "lat": 53.346,
      "lng": -6.2696,
      "drink": "Pint of Guinness",
      "par": 3,
      "type": "kneipe",
      "tags": [
        "kneipe"
      ]
    },
    {
      "id": "dub-018",
      "city": "dublin",
      "name": "O'Reilly's",
      "address": "George's Quay",
      "lat": 53.3471,
      "lng": -6.2541,
      "drink": "Pint of Guinness",
      "par": 4,
      "type": "irish",
      "tags": [
        "irish"
      ]
    },
    {
      "id": "dub-019",
      "city": "dublin",
      "name": "Woolshed Baa & Grill",
      "address": "Parnell Street",
      "lat": 53.3503,
      "lng": -6.2675,
      "drink": "Pint of Guinness",
      "par": 3,
      "type": "kneipe",
      "tags": [
        "kneipe",
        "grill",
        "food"
      ]
    },
    {
      "id": "dub-020",
      "city": "dublin",
      "name": "Oarsman",
      "address": "Bridge Street",
      "district": "ringsend",
      "lat": 53.3417,
      "lng": -6.2278,
      "drink": "Pint of Guinness",
      "par": 3,
      "type": "kneipe",
      "tags": [
        "kneipe"
      ]
    },
    {
      "id": "dub-021",
      "city": "dublin",
      "name": "John Clarke and Sons",
      "address": "12-14 Bridge Street",
      "district": "ringsend",
      "lat": 53.3417,
      "lng": -6.2276,
      "drink": "Pint of Guinness",
      "par": 3,
      "type": "kneipe",
      "tags": [
        "kneipe"
      ]
    },
    {
      "id": "dub-022",
      "city": "dublin",
      "name": "The Vintage Inn",
      "address": "74 Irishtown Road",
      "lat": 53.3387,
      "lng": -6.2229,
      "drink": "Pint of Guinness",
      "par": 3,
      "type": "kneipe",
      "tags": [
        "kneipe"
      ]
    },
    {
      "id": "dub-023",
      "city": "dublin",
      "name": "The Merry Cobbler",
      "address": "78–82 Irishtown Road",
      "lat": 53.3386,
      "lng": -6.2226,
      "drink": "Pint of Guinness",
      "par": 3,
      "type": "kneipe",
      "tags": [
        "kneipe"
      ]
    },
    {
      "id": "dub-024",
      "city": "dublin",
      "name": "Sandymount House",
      "address": "1 Sandymount Green",
      "lat": 53.3324,
      "lng": -6.2153,
      "drink": "Pint of Guinness",
      "par": 3,
      "type": "kneipe",
      "tags": [
        "kneipe",
        "outdoor",
        "food"
      ]
    },
    {
      "id": "dub-025",
      "city": "dublin",
      "name": "O’Reilly’s",
      "address": "5 Seafort Avenue",
      "lat": 53.3328,
      "lng": -6.2152,
      "drink": "Pint of Guinness",
      "par": 3,
      "type": "kneipe",
      "tags": [
        "kneipe"
      ]
    },
    {
      "id": "dub-026",
      "city": "dublin",
      "name": "Horse Show House",
      "address": "34-36 Merrion Road",
      "district": "ballsbridge",
      "lat": 53.3285,
      "lng": -6.2289,
      "drink": "Pint of Guinness",
      "par": 3,
      "type": "kneipe",
      "tags": [
        "kneipe",
        "outdoor",
        "food"
      ]
    },
    {
      "id": "dub-027",
      "city": "dublin",
      "name": "Paddy Cullen",
      "address": "14 Merrion Road",
      "district": "ballsbridge",
      "lat": 53.329,
      "lng": -6.2303,
      "drink": "Pint of Guinness",
      "par": 4,
      "type": "irish",
      "tags": [
        "irish",
        "outdoor"
      ]
    },
    {
      "id": "dub-028",
      "city": "dublin",
      "name": "Mary Mac’s",
      "address": "12 Merrion Road",
      "district": "ballsbridge",
      "lat": 53.329,
      "lng": -6.2304,
      "drink": "Pint of Guinness",
      "par": 3,
      "type": "kneipe",
      "tags": [
        "kneipe",
        "outdoor"
      ]
    },
    {
      "id": "dub-029",
      "city": "dublin",
      "name": "Crowe’s",
      "address": "10 Merrion Road",
      "district": "ballsbridge",
      "lat": 53.3291,
      "lng": -6.2306,
      "drink": "Pint of Guinness",
      "par": 3,
      "type": "kneipe",
      "tags": [
        "kneipe",
        "outdoor"
      ]
    },
    {
      "id": "dub-030",
      "city": "dublin",
      "name": "The Terenure Inn",
      "address": "94-96 Terenure Road North",
      "lat": 53.3114,
      "lng": -6.2831,
      "drink": "Pint of Guinness",
      "par": 3,
      "type": "kneipe",
      "tags": [
        "kneipe",
        "food"
      ]
    },
    {
      "id": "dub-031",
      "city": "dublin",
      "name": "The Black Lion",
      "address": "207A Emmet Road",
      "district": "inchicore",
      "lat": 53.3396,
      "lng": -6.3208,
      "drink": "Pint of Guinness",
      "par": 3,
      "type": "kneipe",
      "tags": [
        "kneipe"
      ]
    },
    {
      "id": "dub-032",
      "city": "dublin",
      "name": "The Saint",
      "address": "Emmet Road",
      "district": "inchicore",
      "lat": 53.3396,
      "lng": -6.3187,
      "drink": "Pint of Guinness",
      "par": 3,
      "type": "kneipe",
      "tags": [
        "kneipe"
      ]
    },
    {
      "id": "dub-033",
      "city": "dublin",
      "name": "Lowes Bar",
      "address": "27 Dolphin's Barn Street",
      "lat": 53.3338,
      "lng": -6.2906,
      "drink": "Pint of Guinness",
      "par": 3,
      "type": "kneipe",
      "tags": [
        "kneipe"
      ]
    },
    {
      "id": "dub-034",
      "city": "dublin",
      "name": "The Bird Flanagan",
      "address": "471-477 South Circular Road",
      "lat": 53.3365,
      "lng": -6.2992,
      "drink": "Pint of Guinness",
      "par": 3,
      "type": "kneipe",
      "tags": [
        "kneipe"
      ]
    },
    {
      "id": "dub-035",
      "city": "dublin",
      "name": "Hogan’s Bar",
      "address": "36 George's Street Great South",
      "lat": 53.342,
      "lng": -6.2646,
      "drink": "Pint of Guinness",
      "par": 3,
      "type": "kneipe",
      "tags": [
        "kneipe"
      ]
    },
    {
      "id": "dub-036",
      "city": "dublin",
      "name": "Molloy’s The Foxes Covert",
      "address": "Main Street",
      "lat": 53.2879,
      "lng": -6.3594,
      "drink": "Pint of Guinness",
      "par": 3,
      "type": "kneipe",
      "tags": [
        "kneipe"
      ]
    },
    {
      "id": "dub-037",
      "city": "dublin",
      "name": "McGarry’s Bar",
      "address": "238 Harold's Cross Road",
      "lat": 53.3217,
      "lng": -6.2795,
      "drink": "Pint of Guinness",
      "par": 4,
      "type": "irish",
      "tags": [
        "irish"
      ]
    },
    {
      "id": "dub-038",
      "city": "dublin",
      "name": "Coman's",
      "address": "Terenure Road East",
      "lat": 53.312,
      "lng": -6.2748,
      "drink": "Pint of Guinness",
      "par": 3,
      "type": "kneipe",
      "tags": [
        "kneipe"
      ]
    },
    {
      "id": "dub-039",
      "city": "dublin",
      "name": "Anseo",
      "address": "18 Camden Street Lower",
      "lat": 53.3353,
      "lng": -6.265,
      "drink": "Pint of Guinness",
      "par": 3,
      "type": "kneipe",
      "tags": [
        "kneipe"
      ]
    },
    {
      "id": "dub-040",
      "city": "dublin",
      "name": "Fidelity",
      "address": "79 Queen Street",
      "district": "smithfield",
      "lat": 53.3471,
      "lng": -6.2803,
      "drink": "Pint of Guinness",
      "par": 3,
      "type": "kneipe",
      "tags": [
        "kneipe",
        "outdoor"
      ]
    },
    {
      "id": "dub-041",
      "city": "dublin",
      "name": "Frank Ryan’s",
      "address": "5 Queen Street",
      "lat": 53.347,
      "lng": -6.28,
      "drink": "Pint of Guinness",
      "par": 3,
      "type": "kneipe",
      "tags": [
        "kneipe"
      ]
    },
    {
      "id": "dub-042",
      "city": "dublin",
      "name": "Madigan’s",
      "address": "19 O'Connell Street Upper",
      "lat": 53.3514,
      "lng": -6.2605,
      "drink": "Pint of Guinness",
      "par": 3,
      "type": "kneipe",
      "tags": [
        "kneipe",
        "outdoor"
      ]
    },
    {
      "id": "dub-043",
      "city": "dublin",
      "name": "The Celt",
      "address": "81 Talbot Street",
      "lat": 53.3506,
      "lng": -6.2549,
      "drink": "Pint of Guinness",
      "par": 3,
      "type": "kneipe",
      "tags": [
        "kneipe",
        "food"
      ]
    },
    {
      "id": "dub-044",
      "city": "dublin",
      "name": "The Old Storehouse",
      "address": "3 Crown Alley",
      "lat": 53.3451,
      "lng": -6.2627,
      "drink": "Pint of Guinness",
      "par": 3,
      "type": "kneipe",
      "tags": [
        "kneipe"
      ]
    },
    {
      "id": "dub-045",
      "city": "dublin",
      "name": "The Grattan",
      "address": "Grattan Crescent",
      "district": "inchicore",
      "lat": 53.3395,
      "lng": -6.3213,
      "drink": "Pint of Guinness",
      "par": 3,
      "type": "kneipe",
      "tags": [
        "kneipe"
      ]
    },
    {
      "id": "dub-046",
      "city": "dublin",
      "name": "McCloskeys",
      "address": "83-85 Morehampton Road",
      "lat": 53.3244,
      "lng": -6.2404,
      "drink": "Pint of Guinness",
      "par": 4,
      "type": "irish",
      "tags": [
        "irish",
        "outdoor"
      ]
    },
    {
      "id": "dub-047",
      "city": "dublin",
      "name": "Thomas Moore Inn",
      "address": "12 Aungier Street",
      "lat": 53.3406,
      "lng": -6.2654,
      "drink": "Pint of Guinness",
      "par": 3,
      "type": "kneipe",
      "tags": [
        "kneipe"
      ]
    },
    {
      "id": "dub-048",
      "city": "dublin",
      "name": "The South Strand",
      "address": "1 Hanover Quay",
      "lat": 53.3443,
      "lng": -6.2382,
      "drink": "Pint of Guinness",
      "par": 3,
      "type": "kneipe",
      "tags": [
        "kneipe"
      ]
    },
    {
      "id": "dub-049",
      "city": "dublin",
      "name": "The Hut",
      "address": "159 Phibsborough Road",
      "lat": 53.361,
      "lng": -6.2725,
      "drink": "Pint of Guinness",
      "par": 3,
      "type": "kneipe",
      "tags": [
        "kneipe"
      ]
    },
    {
      "id": "dub-050",
      "city": "dublin",
      "name": "R. McSorley’s",
      "address": "1-5 Sandford Road",
      "lat": 53.3233,
      "lng": -6.2501,
      "drink": "Pint of Guinness",
      "par": 4,
      "type": "irish",
      "tags": [
        "irish"
      ]
    },
    {
      "id": "dub-051",
      "city": "dublin",
      "name": "Martin B. Slattery",
      "address": "217-219 Rathmines Road Lower",
      "district": "rathmines",
      "lat": 53.3222,
      "lng": -6.2659,
      "drink": "Pint of Guinness",
      "par": 3,
      "type": "kneipe",
      "tags": [
        "kneipe"
      ]
    },
    {
      "id": "dub-052",
      "city": "dublin",
      "name": "74 Talbot",
      "address": "74 Talbot Street",
      "lat": 53.3509,
      "lng": -6.2529,
      "drink": "Pint of Guinness",
      "par": 3,
      "type": "kneipe",
      "tags": [
        "kneipe"
      ]
    },
    {
      "id": "dub-053",
      "city": "dublin",
      "name": "Corrigan’s",
      "address": "27-28 Mountpleasant Avenue Lower",
      "lat": 53.3276,
      "lng": -6.2617,
      "drink": "Pint of Guinness",
      "par": 3,
      "type": "kneipe",
      "tags": [
        "kneipe"
      ]
    },
    {
      "id": "dub-054",
      "city": "dublin",
      "name": "Birchall’s",
      "address": "127-129 Ranelagh",
      "lat": 53.3234,
      "lng": -6.2503,
      "drink": "Pint of Guinness",
      "par": 3,
      "type": "kneipe",
      "tags": [
        "kneipe"
      ]
    },
    {
      "id": "dub-055",
      "city": "dublin",
      "name": "Peadar Browns",
      "address": "1 Clanbrassil Street Lower",
      "lat": 53.3362,
      "lng": -6.2735,
      "drink": "Pint of Guinness",
      "par": 3,
      "type": "kneipe",
      "tags": [
        "kneipe",
        "outdoor"
      ]
    },
    {
      "id": "dub-056",
      "city": "dublin",
      "name": "The Secret Bar / The Bar With No Name",
      "address": "3 Fade Street",
      "lat": 53.3419,
      "lng": -6.2642,
      "drink": "Pint of Guinness",
      "par": 3,
      "type": "kneipe",
      "tags": [
        "kneipe"
      ]
    },
    {
      "id": "dub-057",
      "city": "dublin",
      "name": "The Lord Edward",
      "address": "23 Christchurch Place",
      "lat": 53.3431,
      "lng": -6.2701,
      "drink": "Pint of Guinness",
      "par": 3,
      "type": "kneipe",
      "tags": [
        "kneipe"
      ]
    },
    {
      "id": "dub-058",
      "city": "dublin",
      "name": "Oil Can Harry's",
      "address": "31-32 Mount Street Lower",
      "lat": 53.3383,
      "lng": -6.2432,
      "drink": "Pint of Guinness",
      "par": 3,
      "type": "kneipe",
      "tags": [
        "kneipe",
        "outdoor"
      ]
    },
    {
      "id": "dub-059",
      "city": "dublin",
      "name": "McLoughlin’s",
      "address": "73 Georges Street Upper",
      "lat": 53.2901,
      "lng": -6.1307,
      "drink": "Pint of Guinness",
      "par": 4,
      "type": "irish",
      "tags": [
        "irish"
      ]
    },
    {
      "id": "dub-060",
      "city": "dublin",
      "name": "The Forty Foot",
      "address": "Marine Road",
      "lat": 53.294,
      "lng": -6.1338,
      "drink": "Pint of Guinness",
      "par": 3,
      "type": "kneipe",
      "tags": [
        "kneipe",
        "outdoor",
        "burger",
        "pizza",
        "food"
      ]
    },
    {
      "id": "dub-061",
      "city": "dublin",
      "name": "The Purty Kitchen",
      "address": "3-5 Old Dunleary Road",
      "lat": 53.2952,
      "lng": -6.1482,
      "drink": "Pint of Guinness",
      "par": 3,
      "type": "kneipe",
      "tags": [
        "kneipe",
        "food"
      ]
    },
    {
      "id": "dub-062",
      "city": "dublin",
      "name": "Hardy’s Bar & Bistro",
      "address": "Marine Road",
      "lat": 53.292,
      "lng": -6.1342,
      "drink": "Pint of Guinness",
      "par": 3,
      "type": "kneipe",
      "tags": [
        "kneipe",
        "food"
      ]
    },
    {
      "id": "dub-063",
      "city": "dublin",
      "name": "The Eagle",
      "address": "18-19 Glasthule Road",
      "lat": 53.287,
      "lng": -6.1232,
      "drink": "Pint of Guinness",
      "par": 3,
      "type": "kneipe",
      "tags": [
        "kneipe"
      ]
    },
    {
      "id": "dub-064",
      "city": "dublin",
      "name": "The Laurels",
      "address": "Address unknown",
      "lat": 53.308,
      "lng": -6.3195,
      "drink": "Pint of Guinness",
      "par": 3,
      "type": "kneipe",
      "tags": [
        "kneipe"
      ]
    },
    {
      "id": "dub-065",
      "city": "dublin",
      "name": "The Pines",
      "address": "Address unknown",
      "lat": 53.3073,
      "lng": -6.3189,
      "drink": "Pint of Guinness",
      "par": 3,
      "type": "kneipe",
      "tags": [
        "kneipe"
      ]
    },
    {
      "id": "dub-066",
      "city": "dublin",
      "name": "Birchall’s",
      "address": "1-5 Bangor Drive",
      "lat": 53.328,
      "lng": -6.3049,
      "drink": "Pint of Guinness",
      "par": 3,
      "type": "kneipe",
      "tags": [
        "kneipe",
        "sandwich"
      ]
    },
    {
      "id": "dub-067",
      "city": "dublin",
      "name": "The Lotts",
      "address": "9 Liffey Street Lower",
      "lat": 53.3474,
      "lng": -6.2633,
      "drink": "Pint of Guinness",
      "par": 3,
      "type": "kneipe",
      "tags": [
        "kneipe",
        "outdoor"
      ]
    },
    {
      "id": "dub-068",
      "city": "dublin",
      "name": "Delaney’s",
      "address": "83 North King Street",
      "lat": 53.3498,
      "lng": -6.2785,
      "drink": "Pint of Guinness",
      "par": 3,
      "type": "kneipe",
      "tags": [
        "kneipe",
        "food"
      ]
    },
    {
      "id": "dub-069",
      "city": "dublin",
      "name": "Bar 1661",
      "address": "1-6 Green Street",
      "lat": 53.3493,
      "lng": -6.2705,
      "drink": "Pint of Guinness",
      "par": 3,
      "type": "kneipe",
      "tags": [
        "kneipe"
      ]
    },
    {
      "id": "dub-070",
      "city": "dublin",
      "name": "Madigan's Bar & Grill",
      "address": "Amiens Street",
      "lat": 53.3514,
      "lng": -6.2498,
      "drink": "Pint of Guinness",
      "par": 3,
      "type": "kneipe",
      "tags": [
        "kneipe",
        "regional"
      ]
    },
    {
      "id": "dub-071",
      "city": "dublin",
      "name": "The Dragon Inn",
      "address": "Main Street",
      "lat": 53.2879,
      "lng": -6.3622,
      "drink": "Pint of Guinness",
      "par": 3,
      "type": "kneipe",
      "tags": [
        "kneipe"
      ]
    },
    {
      "id": "dub-072",
      "city": "dublin",
      "name": "The Two Foxes",
      "address": "17 Georges Street Upper",
      "lat": 53.2917,
      "lng": -6.1351,
      "drink": "Pint of Guinness",
      "par": 3,
      "type": "kneipe",
      "tags": [
        "kneipe",
        "outdoor",
        "food"
      ]
    },
    {
      "id": "dub-073",
      "city": "dublin",
      "name": "Walter’s",
      "address": "68 Georges Street Upper",
      "lat": 53.2898,
      "lng": -6.13,
      "drink": "Pint of Guinness",
      "par": 3,
      "type": "kneipe",
      "tags": [
        "kneipe",
        "food"
      ]
    },
    {
      "id": "dub-074",
      "city": "dublin",
      "name": "Jack O’Rourke’s",
      "address": "15 Main Street",
      "lat": 53.3015,
      "lng": -6.1778,
      "drink": "Pint of Guinness",
      "par": 3,
      "type": "kneipe",
      "tags": [
        "kneipe",
        "food"
      ]
    },
    {
      "id": "dub-075",
      "city": "dublin",
      "name": "Kelly and Coopers",
      "address": "39 Main Street",
      "lat": 53.301,
      "lng": -6.1772,
      "drink": "Pint of Guinness",
      "par": 3,
      "type": "kneipe",
      "tags": [
        "kneipe"
      ]
    },
    {
      "id": "dub-076",
      "city": "dublin",
      "name": "Phibsborough House",
      "address": "36 Phibsborough Road",
      "lat": 53.3588,
      "lng": -6.2734,
      "drink": "Pint of Guinness",
      "par": 3,
      "type": "kneipe",
      "tags": [
        "kneipe"
      ]
    },
    {
      "id": "dub-077",
      "city": "dublin",
      "name": "The Twelfth Lock",
      "address": "Address unknown",
      "lat": 53.3821,
      "lng": -6.3672,
      "drink": "Pint of Guinness",
      "par": 3,
      "type": "kneipe",
      "tags": [
        "kneipe"
      ]
    },
    {
      "id": "dub-078",
      "city": "dublin",
      "name": "Krystle",
      "address": "21-25 Harcourt Street",
      "lat": 53.3358,
      "lng": -6.2636,
      "drink": "Pint of Guinness",
      "par": 3,
      "type": "kneipe",
      "tags": [
        "kneipe"
      ]
    },
    {
      "id": "dub-079",
      "city": "dublin",
      "name": "The Exchequer",
      "address": "5 Exchequer Street",
      "lat": 53.3431,
      "lng": -6.2639,
      "drink": "Pint of Guinness",
      "par": 3,
      "type": "kneipe",
      "tags": [
        "kneipe"
      ]
    },
    {
      "id": "dub-080",
      "city": "dublin",
      "name": "Sinnott’s",
      "address": "King Street South",
      "lat": 53.3401,
      "lng": -6.2617,
      "drink": "Pint of Guinness",
      "par": 3,
      "type": "kneipe",
      "tags": [
        "kneipe"
      ]
    },
    {
      "id": "dub-081",
      "city": "dublin",
      "name": "Caribou",
      "address": "28-30 Stephen Street Lower",
      "lat": 53.3412,
      "lng": -6.2643,
      "drink": "Pint of Guinness",
      "par": 3,
      "type": "kneipe",
      "tags": [
        "kneipe"
      ]
    },
    {
      "id": "dub-082",
      "city": "dublin",
      "name": "The Circular",
      "address": "536-538 South Circular Road",
      "lat": 53.3362,
      "lng": -6.298,
      "drink": "Pint of Guinness",
      "par": 3,
      "type": "kneipe",
      "tags": [
        "kneipe"
      ]
    },
    {
      "id": "dub-083",
      "city": "dublin",
      "name": "DV8 Bar & Venue",
      "address": "131 James Street",
      "lat": 53.3435,
      "lng": -6.2906,
      "drink": "Pint of Guinness",
      "par": 3,
      "type": "kneipe",
      "tags": [
        "kneipe"
      ]
    },
    {
      "id": "dub-084",
      "city": "dublin",
      "name": "Bonobo",
      "address": "119-121 Church Street Upper",
      "lat": 53.3504,
      "lng": -6.2747,
      "drink": "Pint of Guinness",
      "par": 3,
      "type": "kneipe",
      "tags": [
        "kneipe",
        "pizza",
        "food"
      ]
    },
    {
      "id": "dub-085",
      "city": "dublin",
      "name": "D-Two",
      "address": "Harcourt Street",
      "lat": 53.3344,
      "lng": -6.2629,
      "drink": "Pint of Guinness",
      "par": 3,
      "type": "kneipe",
      "tags": [
        "kneipe"
      ]
    },
    {
      "id": "dub-086",
      "city": "dublin",
      "name": "J. O'Connell",
      "address": "29 Richmond Street South",
      "district": "portabello",
      "lat": 53.3306,
      "lng": -6.2642,
      "drink": "Pint of Guinness",
      "par": 4,
      "type": "irish",
      "tags": [
        "irish"
      ]
    },
    {
      "id": "dub-087",
      "city": "dublin",
      "name": "The Galway Hooker",
      "address": "Saint John's Road West",
      "lat": 53.3467,
      "lng": -6.2924,
      "drink": "Pint of Guinness",
      "par": 3,
      "type": "kneipe",
      "tags": [
        "kneipe",
        "outdoor",
        "carvery",
        "food"
      ]
    },
    {
      "id": "dub-088",
      "city": "dublin",
      "name": "The Barn House",
      "address": "Address unknown",
      "lat": 53.3322,
      "lng": -6.2928,
      "drink": "Pint of Guinness",
      "par": 3,
      "type": "kneipe",
      "tags": [
        "kneipe"
      ]
    },
    {
      "id": "dub-089",
      "city": "dublin",
      "name": "J. & M. Cleary",
      "address": "36 Amiens Street",
      "lat": 53.3523,
      "lng": -6.2495,
      "drink": "Pint of Guinness",
      "par": 3,
      "type": "kneipe",
      "tags": [
        "kneipe"
      ]
    },
    {
      "id": "dub-090",
      "city": "dublin",
      "name": "The Landmark",
      "address": "40 Wexford Street",
      "lat": 53.3374,
      "lng": -6.2659,
      "drink": "Pint of Guinness",
      "par": 3,
      "type": "kneipe",
      "tags": [
        "kneipe"
      ]
    },
    {
      "id": "dub-091",
      "city": "dublin",
      "name": "The Dunmore",
      "address": "196 Rathmines Road Lower",
      "district": "rathmines",
      "lat": 53.3243,
      "lng": -6.2651,
      "drink": "Pint of Guinness",
      "par": 3,
      "type": "kneipe",
      "tags": [
        "kneipe"
      ]
    },
    {
      "id": "dub-092",
      "city": "dublin",
      "name": "The Kingswood Lodge",
      "address": "Address unknown",
      "lat": 53.3074,
      "lng": -6.3673,
      "drink": "Pint of Guinness",
      "par": 3,
      "type": "kneipe",
      "tags": [
        "kneipe"
      ]
    },
    {
      "id": "dub-093",
      "city": "dublin",
      "name": "The Harold House",
      "address": "34-35 Clanbrassil Street Upper",
      "lat": 53.33,
      "lng": -6.2752,
      "drink": "Pint of Guinness",
      "par": 3,
      "type": "kneipe",
      "tags": [
        "kneipe"
      ]
    },
    {
      "id": "dub-094",
      "city": "dublin",
      "name": "Frehill's Tavern",
      "address": "62a-64 Saint Agnes' Park",
      "lat": 53.3196,
      "lng": -6.3131,
      "drink": "Pint of Guinness",
      "par": 3,
      "type": "kneipe",
      "tags": [
        "kneipe"
      ]
    },
    {
      "id": "dub-095",
      "city": "dublin",
      "name": "Kodiak",
      "address": "304 Rathmines Road Lower",
      "district": "rathmines",
      "lat": 53.3218,
      "lng": -6.2656,
      "drink": "Pint of Guinness",
      "par": 3,
      "type": "kneipe",
      "tags": [
        "kneipe"
      ]
    },
    {
      "id": "dub-096",
      "city": "dublin",
      "name": "The Malt",
      "address": "27 James Street",
      "lat": 53.3429,
      "lng": -6.291,
      "drink": "Pint of Guinness",
      "par": 3,
      "type": "kneipe",
      "tags": [
        "kneipe"
      ]
    },
    {
      "id": "dub-097",
      "city": "dublin",
      "name": "Dame Tavern",
      "address": "18 Dame Court",
      "lat": 53.3438,
      "lng": -6.2639,
      "drink": "Pint of Guinness",
      "par": 3,
      "type": "kneipe",
      "tags": [
        "kneipe",
        "outdoor"
      ]
    },
    {
      "id": "dub-098",
      "city": "dublin",
      "name": "Boomers",
      "address": "Address unknown",
      "lat": 53.3235,
      "lng": -6.3792,
      "drink": "Pint of Guinness",
      "par": 3,
      "type": "kneipe",
      "tags": [
        "kneipe"
      ]
    },
    {
      "id": "dub-099",
      "city": "dublin",
      "name": "The Mission",
      "address": "32 Ellis Street",
      "lat": 53.3471,
      "lng": -6.2837,
      "drink": "Pint of Guinness",
      "par": 3,
      "type": "kneipe",
      "tags": [
        "kneipe"
      ]
    },
    {
      "id": "dub-100",
      "city": "dublin",
      "name": "The Millennium",
      "address": "4-5 Parkgate Street",
      "lat": 53.348,
      "lng": -6.29,
      "drink": "Pint of Guinness",
      "par": 3,
      "type": "kneipe",
      "tags": [
        "kneipe"
      ]
    },
    {
      "id": "dub-101",
      "city": "dublin",
      "name": "Murray’s",
      "address": "33-34 O'Connell Street Upper",
      "lat": 53.3525,
      "lng": -6.2611,
      "drink": "Pint of Guinness",
      "par": 3,
      "type": "kneipe",
      "tags": [
        "kneipe",
        "outdoor",
        "food"
      ]
    },
    {
      "id": "dub-102",
      "city": "dublin",
      "name": "The Temple",
      "address": "71 Dorset Street Upper",
      "lat": 53.3574,
      "lng": -6.2637,
      "drink": "Pint of Guinness",
      "par": 3,
      "type": "kneipe",
      "tags": [
        "kneipe"
      ]
    },
    {
      "id": "dub-103",
      "city": "dublin",
      "name": "Porters",
      "address": "16 Camden Street Lower",
      "lat": 53.3354,
      "lng": -6.265,
      "drink": "Pint of Guinness",
      "par": 3,
      "type": "kneipe",
      "tags": [
        "kneipe"
      ]
    },
    {
      "id": "dub-104",
      "city": "dublin",
      "name": "Swift",
      "address": "131 Thomas Street",
      "lat": 53.3433,
      "lng": -6.2811,
      "drink": "Pint of Guinness",
      "par": 3,
      "type": "kneipe",
      "tags": [
        "kneipe"
      ]
    },
    {
      "id": "dub-105",
      "city": "dublin",
      "name": "The Lamplighter",
      "address": "The Coombe",
      "lat": 53.3397,
      "lng": -6.2781,
      "drink": "Pint of Guinness",
      "par": 3,
      "type": "kneipe",
      "tags": [
        "kneipe"
      ]
    },
    {
      "id": "dub-106",
      "city": "dublin",
      "name": "Tom Kennedy’s",
      "address": "65 Thomas Street",
      "lat": 53.3427,
      "lng": -6.2772,
      "drink": "Pint of Guinness",
      "par": 3,
      "type": "kneipe",
      "tags": [
        "kneipe"
      ]
    },
    {
      "id": "dub-107",
      "city": "dublin",
      "name": "The Lark Inn",
      "address": "80-81 Meath Street",
      "lat": 53.3417,
      "lng": -6.2787,
      "drink": "Pint of Guinness",
      "par": 3,
      "type": "kneipe",
      "tags": [
        "kneipe"
      ]
    },
    {
      "id": "dub-108",
      "city": "dublin",
      "name": "The Pimlico Tavern",
      "address": "62 Pimlico",
      "lat": 53.3401,
      "lng": -6.2807,
      "drink": "Pint of Guinness",
      "par": 3,
      "type": "kneipe",
      "tags": [
        "kneipe"
      ]
    },
    {
      "id": "dub-109",
      "city": "dublin",
      "name": "McDowell’s",
      "address": "139 Emmet Road",
      "district": "inchicore",
      "lat": 53.3402,
      "lng": -6.3168,
      "drink": "Pint of Guinness",
      "par": 4,
      "type": "irish",
      "tags": [
        "irish"
      ]
    },
    {
      "id": "dub-110",
      "city": "dublin",
      "name": "Gleesons of Booterstown",
      "address": "Address unknown",
      "lat": 53.3055,
      "lng": -6.1976,
      "drink": "Pint of Guinness",
      "par": 3,
      "type": "kneipe",
      "tags": [
        "kneipe"
      ]
    },
    {
      "id": "dub-111",
      "city": "dublin",
      "name": "Tolka House",
      "address": "Glasnevin Hill",
      "lat": 53.3738,
      "lng": -6.269,
      "drink": "Pint of Guinness",
      "par": 3,
      "type": "kneipe",
      "tags": [
        "kneipe",
        "outdoor"
      ]
    },
    {
      "id": "dub-112",
      "city": "dublin",
      "name": "Trinity Bar & Venue",
      "address": "46-49 Dame Street",
      "lat": 53.3443,
      "lng": -6.2637,
      "drink": "Pint of Guinness",
      "par": 3,
      "type": "kneipe",
      "tags": [
        "kneipe"
      ]
    },
    {
      "id": "dub-113",
      "city": "dublin",
      "name": "Bad Bob's",
      "address": "35-37 Essex Street East",
      "lat": 53.345,
      "lng": -6.266,
      "drink": "Pint of Guinness",
      "par": 3,
      "type": "kneipe",
      "tags": [
        "kneipe",
        "outdoor",
        "burger",
        "sandwich",
        "food"
      ]
    },
    {
      "id": "dub-114",
      "city": "dublin",
      "name": "The Two Sisters",
      "address": "Address unknown",
      "lat": 53.3091,
      "lng": -6.3053,
      "drink": "Pint of Guinness",
      "par": 3,
      "type": "kneipe",
      "tags": [
        "kneipe"
      ]
    },
    {
      "id": "dub-115",
      "city": "dublin",
      "name": "The Wicked Wolf",
      "address": "2 Main Street",
      "lat": 53.3019,
      "lng": -6.178,
      "drink": "Pint of Guinness",
      "par": 3,
      "type": "kneipe",
      "tags": [
        "kneipe"
      ]
    },
    {
      "id": "dub-116",
      "city": "dublin",
      "name": "The Portobello Bar",
      "address": "33 Richmond Street South",
      "district": "portabello",
      "lat": 53.3303,
      "lng": -6.2641,
      "drink": "Pint of Guinness",
      "par": 3,
      "type": "kneipe",
      "tags": [
        "kneipe",
        "food"
      ]
    },
    {
      "id": "dub-117",
      "city": "dublin",
      "name": "The Hill",
      "address": "1 Old Mountpleasant",
      "lat": 53.3267,
      "lng": -6.2584,
      "drink": "Pint of Guinness",
      "par": 3,
      "type": "kneipe",
      "tags": [
        "kneipe"
      ]
    },
    {
      "id": "dub-118",
      "city": "dublin",
      "name": "Morrissey's",
      "address": "Address unknown",
      "lat": 53.3368,
      "lng": -6.2877,
      "drink": "Pint of Guinness",
      "par": 3,
      "type": "kneipe",
      "tags": [
        "kneipe"
      ]
    },
    {
      "id": "dub-119",
      "city": "dublin",
      "name": "Edenmore House",
      "address": "Edenmore Avenue",
      "lat": 53.3883,
      "lng": -6.1834,
      "drink": "Pint of Guinness",
      "par": 3,
      "type": "kneipe",
      "tags": [
        "kneipe"
      ]
    },
    {
      "id": "dub-120",
      "city": "dublin",
      "name": "The Concorde",
      "address": "Edenmore Avenue",
      "lat": 53.3889,
      "lng": -6.181,
      "drink": "Pint of Guinness",
      "par": 3,
      "type": "kneipe",
      "tags": [
        "kneipe"
      ]
    },
    {
      "id": "dub-121",
      "city": "dublin",
      "name": "Quarry House",
      "address": "68 Ballygall Road East",
      "lat": 53.3821,
      "lng": -6.2767,
      "drink": "Pint of Guinness",
      "par": 3,
      "type": "kneipe",
      "tags": [
        "kneipe"
      ]
    },
    {
      "id": "dub-122",
      "city": "dublin",
      "name": "Autobahn Roadhouse",
      "address": "Glasnevin Avenue",
      "lat": 53.3897,
      "lng": -6.2712,
      "drink": "Pint of Guinness",
      "par": 3,
      "type": "kneipe",
      "tags": [
        "kneipe"
      ]
    },
    {
      "id": "dub-123",
      "city": "dublin",
      "name": "The Slipper",
      "address": "125 Ballymun Road",
      "district": "glasnevin",
      "lat": 53.3853,
      "lng": -6.2656,
      "drink": "Pint of Guinness",
      "par": 3,
      "type": "kneipe",
      "tags": [
        "kneipe",
        "food"
      ]
    },
    {
      "id": "dub-124",
      "city": "dublin",
      "name": "Nubar",
      "address": "Address unknown",
      "lat": 53.3851,
      "lng": -6.2589,
      "drink": "Pint of Guinness",
      "par": 3,
      "type": "kneipe",
      "tags": [
        "kneipe"
      ]
    },
    {
      "id": "dub-125",
      "city": "dublin",
      "name": "The Comet",
      "address": "243 Swords Road",
      "district": "whitehall",
      "lat": 53.3885,
      "lng": -6.246,
      "drink": "Pint of Guinness",
      "par": 3,
      "type": "kneipe",
      "tags": [
        "kneipe"
      ]
    },
    {
      "id": "dub-126",
      "city": "dublin",
      "name": "Rory O'Connor's",
      "address": "Address unknown",
      "lat": 53.3159,
      "lng": -6.3173,
      "drink": "Pint of Guinness",
      "par": 4,
      "type": "irish",
      "tags": [
        "irish"
      ]
    },
    {
      "id": "dub-127",
      "city": "dublin",
      "name": "The Submarine",
      "address": "Address unknown",
      "lat": 53.3162,
      "lng": -6.3174,
      "drink": "Pint of Guinness",
      "par": 3,
      "type": "kneipe",
      "tags": [
        "kneipe",
        "food"
      ]
    },
    {
      "id": "dub-128",
      "city": "dublin",
      "name": "Barcode",
      "address": "Address unknown",
      "lat": 53.363,
      "lng": -6.2287,
      "drink": "Pint of Guinness",
      "par": 3,
      "type": "kneipe",
      "tags": [
        "kneipe"
      ]
    },
    {
      "id": "dub-129",
      "city": "dublin",
      "name": "Brewery Bar",
      "address": "Address unknown",
      "lat": 53.3405,
      "lng": -6.2869,
      "drink": "Pint of Smithwick's",
      "par": 4,
      "type": "brauhaus",
      "tags": [
        "brauhaus"
      ]
    },
    {
      "id": "dub-130",
      "city": "dublin",
      "name": "EpiCenter",
      "address": "EastPoint Business Park",
      "lat": 53.3573,
      "lng": -6.2269,
      "drink": "Pint of Guinness",
      "par": 3,
      "type": "kneipe",
      "tags": [
        "kneipe"
      ]
    },
    {
      "id": "dub-131",
      "city": "dublin",
      "name": "Pebble Beach",
      "address": "18 Conquer Hill Road",
      "lat": 53.3595,
      "lng": -6.1897,
      "drink": "Pint of Guinness",
      "par": 3,
      "type": "kneipe",
      "tags": [
        "kneipe"
      ]
    },
    {
      "id": "dub-132",
      "city": "dublin",
      "name": "Kyle’s",
      "address": "Main Street",
      "district": "coolock village",
      "lat": 53.3889,
      "lng": -6.2009,
      "drink": "Pint of Guinness",
      "par": 3,
      "type": "kneipe",
      "tags": [
        "kneipe"
      ]
    },
    {
      "id": "dub-133",
      "city": "dublin",
      "name": "Dusk Nightclub",
      "address": "Oscar Traynor Road",
      "lat": 53.3965,
      "lng": -6.2149,
      "drink": "Craft Beer",
      "par": 3,
      "type": "szene",
      "tags": [
        "szene"
      ]
    },
    {
      "id": "dub-134",
      "city": "dublin",
      "name": "Ardlea Inn",
      "address": "Ardlea Road",
      "lat": 53.3867,
      "lng": -6.2116,
      "drink": "Pint of Guinness",
      "par": 3,
      "type": "kneipe",
      "tags": [
        "kneipe"
      ]
    },
    {
      "id": "dub-135",
      "city": "dublin",
      "name": "The Roundabout",
      "address": "2 Ardcollum Avenue",
      "lat": 53.3839,
      "lng": -6.2068,
      "drink": "Pint of Guinness",
      "par": 3,
      "type": "kneipe",
      "tags": [
        "kneipe"
      ]
    },
    {
      "id": "dub-136",
      "city": "dublin",
      "name": "The Goblet",
      "address": "Malahide Road",
      "lat": 53.3803,
      "lng": -6.2101,
      "drink": "Pint of Guinness",
      "par": 3,
      "type": "kneipe",
      "tags": [
        "kneipe"
      ]
    },
    {
      "id": "dub-137",
      "city": "dublin",
      "name": "Kavanagh’s",
      "address": "35 New Street South",
      "lat": 53.3364,
      "lng": -6.2728,
      "drink": "Pint of Guinness",
      "par": 3,
      "type": "kneipe",
      "tags": [
        "kneipe"
      ]
    },
    {
      "id": "dub-138",
      "city": "dublin",
      "name": "An Cappagh Nua",
      "address": "Barry Road",
      "lat": 53.3951,
      "lng": -6.3112,
      "drink": "Pint of Guinness",
      "par": 3,
      "type": "kneipe",
      "tags": [
        "kneipe"
      ]
    },
    {
      "id": "dub-139",
      "city": "dublin",
      "name": "O’Shea’s",
      "address": "19 Talbot Street",
      "lat": 53.3509,
      "lng": -6.2543,
      "drink": "Pint of Guinness",
      "par": 3,
      "type": "kneipe",
      "tags": [
        "kneipe"
      ]
    },
    {
      "id": "dub-140",
      "city": "dublin",
      "name": "The Elphin",
      "address": "36 Baldoyle Road",
      "lat": 53.3893,
      "lng": -6.1237,
      "drink": "Pint of Guinness",
      "par": 3,
      "type": "kneipe",
      "tags": [
        "kneipe"
      ]
    },
    {
      "id": "dub-141",
      "city": "dublin",
      "name": "The Halfway House",
      "address": "Address unknown",
      "lat": 53.3238,
      "lng": -6.3284,
      "drink": "Pint of Guinness",
      "par": 3,
      "type": "kneipe",
      "tags": [
        "kneipe"
      ]
    },
    {
      "id": "dub-142",
      "city": "dublin",
      "name": "Marble Arch",
      "address": "Davitt Road",
      "lat": 53.3359,
      "lng": -6.312,
      "drink": "Pint of Guinness",
      "par": 3,
      "type": "kneipe",
      "tags": [
        "kneipe"
      ]
    },
    {
      "id": "dub-143",
      "city": "dublin",
      "name": "The Hub (The Shaw Arms)",
      "address": "Saint Agnes Road",
      "lat": 53.3207,
      "lng": -6.3163,
      "drink": "Pint of Guinness",
      "par": 3,
      "type": "kneipe",
      "tags": [
        "kneipe"
      ]
    },
    {
      "id": "dub-144",
      "city": "dublin",
      "name": "The Legal Eagle",
      "address": "1-2 Chancery Place",
      "lat": 53.3458,
      "lng": -6.2722,
      "drink": "Pint of Guinness",
      "par": 3,
      "type": "kneipe",
      "tags": [
        "kneipe"
      ]
    },
    {
      "id": "dub-145",
      "city": "dublin",
      "name": "The Green Room",
      "address": "117-126 Upper Sheriff Street",
      "lat": 53.3498,
      "lng": -6.2299,
      "drink": "Pint of Guinness",
      "par": 3,
      "type": "kneipe",
      "tags": [
        "kneipe"
      ]
    },
    {
      "id": "dub-146",
      "city": "dublin",
      "name": "Seabank House",
      "address": "Address unknown",
      "lat": 53.3549,
      "lng": -6.2292,
      "drink": "Pint of Guinness",
      "par": 3,
      "type": "kneipe",
      "tags": [
        "kneipe"
      ]
    },
    {
      "id": "dub-147",
      "city": "dublin",
      "name": "The Stone Boat",
      "address": "35-37 Sundrive Road",
      "lat": 53.3206,
      "lng": -6.2922,
      "drink": "Pint of Guinness",
      "par": 3,
      "type": "kneipe",
      "tags": [
        "kneipe"
      ]
    },
    {
      "id": "dub-148",
      "city": "dublin",
      "name": "K.C.R. House",
      "address": "326 Kimmage Road Lower",
      "lat": 53.3142,
      "lng": -6.2964,
      "drink": "Pint of Guinness",
      "par": 3,
      "type": "kneipe",
      "tags": [
        "kneipe"
      ]
    },
    {
      "id": "dub-149",
      "city": "dublin",
      "name": "The Old County",
      "address": "125 Old County Road",
      "lat": 53.3274,
      "lng": -6.306,
      "drink": "Pint of Guinness",
      "par": 3,
      "type": "kneipe",
      "tags": [
        "kneipe"
      ]
    },
    {
      "id": "dub-150",
      "city": "dublin",
      "name": "The Square Ball",
      "address": "45 Hogan Place",
      "lat": 53.3408,
      "lng": -6.2448,
      "drink": "Pint of Guinness",
      "par": 3,
      "type": "kneipe",
      "tags": [
        "kneipe"
      ]
    },
    {
      "id": "dub-151",
      "city": "dublin",
      "name": "The Strand House",
      "address": "172 North Strand Road",
      "lat": 53.355,
      "lng": -6.246,
      "drink": "Pint of Guinness",
      "par": 3,
      "type": "kneipe",
      "tags": [
        "kneipe"
      ]
    },
    {
      "id": "dub-152",
      "city": "dublin",
      "name": "Mullet’s",
      "address": "45 Amiens Street",
      "lat": 53.3526,
      "lng": -6.2493,
      "drink": "Pint of Guinness",
      "par": 3,
      "type": "kneipe",
      "tags": [
        "kneipe"
      ]
    },
    {
      "id": "dub-153",
      "city": "dublin",
      "name": "Blackbanks Bar & Grill",
      "address": "Greendale Road",
      "lat": 53.386,
      "lng": -6.1555,
      "drink": "Pint of Guinness",
      "par": 3,
      "type": "kneipe",
      "tags": [
        "kneipe",
        "food"
      ]
    },
    {
      "id": "dub-154",
      "city": "dublin",
      "name": "Cumiskey’s",
      "address": "41 Dominick Street Upper",
      "lat": 53.3543,
      "lng": -6.272,
      "drink": "Pint of Guinness",
      "par": 3,
      "type": "kneipe",
      "tags": [
        "kneipe"
      ]
    },
    {
      "id": "dub-155",
      "city": "dublin",
      "name": "The Berkeley",
      "address": "Address unknown",
      "lat": 53.3562,
      "lng": -6.2678,
      "drink": "Pint of Guinness",
      "par": 3,
      "type": "kneipe",
      "tags": [
        "kneipe"
      ]
    },
    {
      "id": "dub-156",
      "city": "dublin",
      "name": "Darkey Kelly’s",
      "address": "Fishamble Street",
      "lat": 53.344,
      "lng": -6.27,
      "drink": "Pint of Guinness",
      "par": 3,
      "type": "kneipe",
      "tags": [
        "kneipe",
        "outdoor"
      ]
    },
    {
      "id": "dub-157",
      "city": "dublin",
      "name": "Glynn’s",
      "address": "100 Dorset Street Upper",
      "lat": 53.3555,
      "lng": -6.266,
      "drink": "Pint of Guinness",
      "par": 3,
      "type": "kneipe",
      "tags": [
        "kneipe"
      ]
    },
    {
      "id": "dub-158",
      "city": "dublin",
      "name": "Delahunty's",
      "address": "99 Dorset Street Lower",
      "lat": 53.3556,
      "lng": -6.2658,
      "drink": "Pint of Guinness",
      "par": 3,
      "type": "kneipe",
      "tags": [
        "kneipe"
      ]
    },
    {
      "id": "dub-159",
      "city": "dublin",
      "name": "The Findlater",
      "address": "80 Dorset Street Upper",
      "lat": 53.357,
      "lng": -6.2646,
      "drink": "Pint of Guinness",
      "par": 3,
      "type": "kneipe",
      "tags": [
        "kneipe"
      ]
    },
    {
      "id": "dub-160",
      "city": "dublin",
      "name": "Peadar Kearney's",
      "address": "64 Dame Street",
      "lat": 53.3443,
      "lng": -6.2654,
      "drink": "Pint of Guinness",
      "par": 3,
      "type": "kneipe",
      "tags": [
        "kneipe"
      ]
    },
    {
      "id": "dub-161",
      "city": "dublin",
      "name": "Busker's Bar",
      "address": "13-17 Fleet Street",
      "lat": 53.3458,
      "lng": -6.2605,
      "drink": "Pint of Guinness",
      "par": 3,
      "type": "kneipe",
      "tags": [
        "kneipe",
        "outdoor"
      ]
    },
    {
      "id": "dub-162",
      "city": "dublin",
      "name": "Conway’s",
      "address": "3 Main Street",
      "lat": 53.3018,
      "lng": -6.1782,
      "drink": "Pint of Guinness",
      "par": 3,
      "type": "kneipe",
      "tags": [
        "kneipe"
      ]
    },
    {
      "id": "dub-163",
      "city": "dublin",
      "name": "The Blarney Inn",
      "address": "Address unknown",
      "lat": 53.3421,
      "lng": -6.2548,
      "drink": "Pint of Guinness",
      "par": 3,
      "type": "kneipe",
      "tags": [
        "kneipe"
      ]
    },
    {
      "id": "dub-164",
      "city": "dublin",
      "name": "The Laurence Lounge",
      "address": "Address unknown",
      "lat": 53.343,
      "lng": -6.338,
      "drink": "Craft Beer",
      "par": 3,
      "type": "cocktailbar",
      "tags": [
        "cocktailbar"
      ]
    },
    {
      "id": "dub-165",
      "city": "dublin",
      "name": "Downey's",
      "address": "Address unknown",
      "lat": 53.3423,
      "lng": -6.3571,
      "drink": "Pint of Guinness",
      "par": 3,
      "type": "kneipe",
      "tags": [
        "kneipe"
      ]
    },
    {
      "id": "dub-166",
      "city": "dublin",
      "name": "O’Neill’s",
      "address": "2 Suffolk Street",
      "lat": 53.3438,
      "lng": -6.2607,
      "drink": "Pint of Guinness",
      "par": 3,
      "type": "kneipe",
      "tags": [
        "kneipe"
      ]
    },
    {
      "id": "dub-167",
      "city": "dublin",
      "name": "Molloy’s",
      "address": "59 Talbot Street",
      "lat": 53.3511,
      "lng": -6.2513,
      "drink": "Pint of Guinness",
      "par": 3,
      "type": "kneipe",
      "tags": [
        "kneipe",
        "food"
      ]
    },
    {
      "id": "dub-168",
      "city": "dublin",
      "name": "Grace’s",
      "address": "2-5 Rathgar Road",
      "district": "rathmines",
      "lat": 53.3218,
      "lng": -6.2664,
      "drink": "Pint of Guinness",
      "par": 3,
      "type": "kneipe",
      "tags": [
        "kneipe"
      ]
    },
    {
      "id": "dub-169",
      "city": "dublin",
      "name": "Cleary's",
      "address": "Address unknown",
      "lat": 53.3416,
      "lng": -6.3214,
      "drink": "Pint of Guinness",
      "par": 3,
      "type": "kneipe",
      "tags": [
        "kneipe"
      ]
    },
    {
      "id": "dub-170",
      "city": "dublin",
      "name": "The Horse Shoe",
      "address": "Saint Agnes Road",
      "lat": 53.3201,
      "lng": -6.3161,
      "drink": "Pint of Guinness",
      "par": 3,
      "type": "kneipe",
      "tags": [
        "kneipe"
      ]
    },
    {
      "id": "dub-171",
      "city": "dublin",
      "name": "Peggy Kelly’s",
      "address": "159-163 Harold's Cross Road",
      "lat": 53.3238,
      "lng": -6.2785,
      "drink": "Pint of Guinness",
      "par": 3,
      "type": "kneipe",
      "tags": [
        "kneipe"
      ]
    },
    {
      "id": "dub-172",
      "city": "dublin",
      "name": "Arthur Mayne’s",
      "address": "48-50 Donnybrook Road",
      "district": "donneybrook",
      "lat": 53.3217,
      "lng": -6.2353,
      "drink": "Pint of Guinness",
      "par": 3,
      "type": "kneipe",
      "tags": [
        "kneipe",
        "outdoor"
      ]
    },
    {
      "id": "dub-173",
      "city": "dublin",
      "name": "Rody Boland’s",
      "address": "12-14 Rathmines Road Upper",
      "district": "rathmines",
      "lat": 53.3211,
      "lng": -6.2655,
      "drink": "Pint of Guinness",
      "par": 3,
      "type": "kneipe",
      "tags": [
        "kneipe"
      ]
    },
    {
      "id": "dub-174",
      "city": "dublin",
      "name": "Mother Reilly’s Bar & Restaurant",
      "address": "26-30 Rathmines Road Upper",
      "district": "rathmines",
      "lat": 53.3208,
      "lng": -6.2651,
      "drink": "Pint of Guinness",
      "par": 3,
      "type": "kneipe",
      "tags": [
        "kneipe",
        "outdoor"
      ]
    },
    {
      "id": "dub-175",
      "city": "dublin",
      "name": "Kenny’s",
      "address": "174 James's Street",
      "lat": 53.3424,
      "lng": -6.2945,
      "drink": "Pint of Guinness",
      "par": 3,
      "type": "kneipe",
      "tags": [
        "kneipe"
      ]
    },
    {
      "id": "dub-176",
      "city": "dublin",
      "name": "Cú Chulainn's at Croke Park",
      "address": "Summerhill",
      "lat": 53.3564,
      "lng": -6.2508,
      "drink": "Pint of Guinness",
      "par": 3,
      "type": "kneipe",
      "tags": [
        "kneipe"
      ]
    },
    {
      "id": "dub-177",
      "city": "dublin",
      "name": "Mulligan and Haines",
      "address": "32 Dame Street",
      "lat": 53.3441,
      "lng": -6.2635,
      "drink": "Pint of Guinness",
      "par": 3,
      "type": "kneipe",
      "tags": [
        "kneipe",
        "food"
      ]
    },
    {
      "id": "dub-178",
      "city": "dublin",
      "name": "Camden Exchange",
      "address": "72 Camden Street Lower",
      "lat": 53.3351,
      "lng": -6.2654,
      "drink": "Pint of Guinness",
      "par": 3,
      "type": "kneipe",
      "tags": [
        "kneipe"
      ]
    },
    {
      "id": "dub-179",
      "city": "dublin",
      "name": "The Willows",
      "address": "26-28 Willow Road",
      "lat": 53.2842,
      "lng": -6.2508,
      "drink": "Pint of Guinness",
      "par": 3,
      "type": "kneipe",
      "tags": [
        "kneipe"
      ]
    },
    {
      "id": "dub-180",
      "city": "dublin",
      "name": "The Roselawn Inn",
      "address": "Address unknown",
      "lat": 53.3837,
      "lng": -6.3817,
      "drink": "Pint of Guinness",
      "par": 3,
      "type": "kneipe",
      "tags": [
        "kneipe"
      ]
    },
    {
      "id": "dub-181",
      "city": "dublin",
      "name": "The Carlisle Bar",
      "address": "Address unknown",
      "lat": 53.292,
      "lng": -6.1303,
      "drink": "Pint of Guinness",
      "par": 3,
      "type": "kneipe",
      "tags": [
        "kneipe"
      ]
    },
    {
      "id": "dub-182",
      "city": "dublin",
      "name": "M O'Loughlin",
      "address": "26 George's Street Lower",
      "lat": 53.2939,
      "lng": -6.1401,
      "drink": "Pint of Guinness",
      "par": 4,
      "type": "irish",
      "tags": [
        "irish"
      ]
    },
    {
      "id": "dub-183",
      "city": "dublin",
      "name": "Dicey’s Garden",
      "address": "21-25 Harcourt Street",
      "lat": 53.3359,
      "lng": -6.2636,
      "drink": "Pint of Guinness",
      "par": 3,
      "type": "kneipe",
      "tags": [
        "kneipe"
      ]
    },
    {
      "id": "dub-184",
      "city": "dublin",
      "name": "Leggs pub",
      "address": "Leeson Street Lower",
      "lat": 53.3342,
      "lng": -6.2548,
      "drink": "Pint of Guinness",
      "par": 3,
      "type": "kneipe",
      "tags": [
        "kneipe"
      ]
    },
    {
      "id": "dub-185",
      "city": "dublin",
      "name": "Robert Reade Bar and Cafe",
      "address": "Address unknown",
      "lat": 53.3514,
      "lng": -6.2514,
      "drink": "Pint of Guinness",
      "par": 3,
      "type": "kneipe",
      "tags": [
        "kneipe"
      ]
    },
    {
      "id": "dub-186",
      "city": "dublin",
      "name": "The Bridge 1859",
      "address": "13 Ballsbridge Terrace",
      "district": "ballsbridge",
      "lat": 53.3293,
      "lng": -6.232,
      "drink": "Pint of Guinness",
      "par": 3,
      "type": "kneipe",
      "tags": [
        "kneipe",
        "outdoor",
        "food"
      ]
    },
    {
      "id": "dub-187",
      "city": "dublin",
      "name": "D’Arcy McGee’s",
      "address": "Tallaght Road",
      "lat": 53.2934,
      "lng": -6.3236,
      "drink": "Pint of Guinness",
      "par": 4,
      "type": "irish",
      "tags": [
        "irish",
        "food"
      ]
    },
    {
      "id": "dub-188",
      "city": "dublin",
      "name": "Cherry Tree Pub and Restaurant",
      "address": "1 Walkinstown Cross",
      "lat": 53.3165,
      "lng": -6.3327,
      "drink": "Pint of Guinness",
      "par": 3,
      "type": "kneipe",
      "tags": [
        "kneipe"
      ]
    },
    {
      "id": "dub-189",
      "city": "dublin",
      "name": "Angler’s Rest",
      "address": "Lower Lucan Road",
      "district": "castleknock",
      "lat": 53.3591,
      "lng": -6.3588,
      "drink": "Pint of Guinness",
      "par": 3,
      "type": "kneipe",
      "tags": [
        "kneipe"
      ]
    },
    {
      "id": "dub-190",
      "city": "dublin",
      "name": "Open Gate Brewery",
      "address": "Address unknown",
      "lat": 53.3432,
      "lng": -6.287,
      "drink": "Pint of Smithwick's",
      "par": 4,
      "type": "brauhaus",
      "tags": [
        "brauhaus"
      ]
    },
    {
      "id": "dub-191",
      "city": "dublin",
      "name": "Urban Brewing",
      "address": "Custom House Quay",
      "lat": 53.3491,
      "lng": -6.2481,
      "drink": "Pint of Smithwick's",
      "par": 4,
      "type": "brauhaus",
      "tags": [
        "brauhaus",
        "outdoor",
        "microbrewery"
      ]
    },
    {
      "id": "dub-192",
      "city": "dublin",
      "name": "Churchtown Stores",
      "address": "5 Braemor Road",
      "lat": 53.2958,
      "lng": -6.2603,
      "drink": "Pint of Guinness",
      "par": 3,
      "type": "kneipe",
      "tags": [
        "kneipe"
      ]
    },
    {
      "id": "dub-193",
      "city": "dublin",
      "name": "Fibber Magee’s",
      "address": "80-81 Parnell Street",
      "district": "rotunda",
      "lat": 53.3529,
      "lng": -6.2605,
      "drink": "Pint of Guinness",
      "par": 3,
      "type": "kneipe",
      "tags": [
        "kneipe"
      ]
    },
    {
      "id": "dub-194",
      "city": "dublin",
      "name": "Alfred's",
      "address": "Address unknown",
      "lat": 53.342,
      "lng": -6.2867,
      "drink": "Pint of Guinness",
      "par": 3,
      "type": "kneipe",
      "tags": [
        "kneipe"
      ]
    },
    {
      "id": "dub-195",
      "city": "dublin",
      "name": "The Fourth Corner",
      "address": "50 Patrick Street",
      "lat": 53.3389,
      "lng": -6.2723,
      "drink": "Pint of Guinness",
      "par": 3,
      "type": "kneipe",
      "tags": [
        "kneipe"
      ]
    },
    {
      "id": "dub-196",
      "city": "dublin",
      "name": "Mary’s Bar & Hardware Shop",
      "address": "8 Wicklow Street",
      "lat": 53.3429,
      "lng": -6.2604,
      "drink": "Craft IPA Pint",
      "par": 3,
      "type": "craft",
      "tags": [
        "craft",
        "outdoor"
      ]
    },
    {
      "id": "dub-197",
      "city": "dublin",
      "name": "Crough's Pub",
      "address": "Address unknown",
      "lat": 53.2867,
      "lng": -6.3899,
      "drink": "Pint of Guinness",
      "par": 3,
      "type": "kneipe",
      "tags": [
        "kneipe"
      ]
    },
    {
      "id": "dub-198",
      "city": "dublin",
      "name": "The Well",
      "address": "130 St. Stephen's Green",
      "lat": 53.3395,
      "lng": -6.2613,
      "drink": "Pint of Guinness",
      "par": 3,
      "type": "kneipe",
      "tags": [
        "kneipe"
      ]
    },
    {
      "id": "dub-199",
      "city": "dublin",
      "name": "P. Duggan’s",
      "address": "25 Parkgate Street",
      "lat": 53.3482,
      "lng": -6.2932,
      "drink": "Pint of Guinness",
      "par": 3,
      "type": "kneipe",
      "tags": [
        "kneipe"
      ]
    },
    {
      "id": "dub-200",
      "city": "dublin",
      "name": "The Big Romance",
      "address": "98 Parnell Street",
      "district": "rotunda",
      "lat": 53.3535,
      "lng": -6.2592,
      "drink": "Pint of Guinness",
      "par": 3,
      "type": "kneipe",
      "tags": [
        "kneipe"
      ]
    },
    {
      "id": "dub-201",
      "city": "dublin",
      "name": "The Library Bar",
      "address": "Address unknown",
      "lat": 53.292,
      "lng": -6.1302,
      "drink": "Pint of Guinness",
      "par": 3,
      "type": "kneipe",
      "tags": [
        "kneipe"
      ]
    },
    {
      "id": "dub-202",
      "city": "dublin",
      "name": "The Bottle Boy",
      "address": "North Wall Quay",
      "lat": 53.3472,
      "lng": -6.2326,
      "drink": "Pint of Guinness",
      "par": 3,
      "type": "kneipe",
      "tags": [
        "kneipe",
        "food"
      ]
    },
    {
      "id": "dub-203",
      "city": "dublin",
      "name": "Molloy’s Bar & Grill",
      "address": "Main Street",
      "lat": 53.2876,
      "lng": -6.3594,
      "drink": "Pint of Guinness",
      "par": 3,
      "type": "kneipe",
      "tags": [
        "kneipe"
      ]
    },
    {
      "id": "dub-204",
      "city": "dublin",
      "name": "The Big Tree",
      "address": "39-41 Dorset Street Lower",
      "lat": 53.3598,
      "lng": -6.2609,
      "drink": "Pint of Guinness",
      "par": 3,
      "type": "kneipe",
      "tags": [
        "kneipe"
      ]
    },
    {
      "id": "dub-205",
      "city": "dublin",
      "name": "Dockers",
      "address": "4-5 Sir John Rogerson's Quay",
      "lat": 53.3464,
      "lng": -6.2456,
      "drink": "Pint of Guinness",
      "par": 3,
      "type": "kneipe",
      "tags": [
        "kneipe",
        "outdoor"
      ]
    },
    {
      "id": "dub-206",
      "city": "dublin",
      "name": "Rascals HQ",
      "address": "Unit 5 Tyrconnell Road",
      "district": "inchicore",
      "lat": 53.336,
      "lng": -6.3241,
      "drink": "Pint of Guinness",
      "par": 3,
      "type": "kneipe",
      "tags": [
        "kneipe"
      ]
    },
    {
      "id": "dub-207",
      "city": "dublin",
      "name": "Open Gate Taproom",
      "address": "53 James Street",
      "lat": 53.3432,
      "lng": -6.2871,
      "drink": "Craft IPA Pint",
      "par": 3,
      "type": "craft",
      "tags": [
        "craft"
      ]
    },
    {
      "id": "dub-208",
      "city": "dublin",
      "name": "Raheny United Clubhouse Bar",
      "address": "All Saints Drive",
      "lat": 53.3784,
      "lng": -6.1791,
      "drink": "Craft Beer",
      "par": 3,
      "type": "szene",
      "tags": [
        "szene"
      ]
    },
    {
      "id": "dub-209",
      "city": "dublin",
      "name": "The White House",
      "address": "12-13 Main Street",
      "lat": 53.398,
      "lng": -6.1271,
      "drink": "Pint of Guinness",
      "par": 3,
      "type": "kneipe",
      "tags": [
        "kneipe"
      ]
    },
    {
      "id": "dub-210",
      "city": "dublin",
      "name": "The Brazen Head",
      "address": "19-20 Bridge Street Lower",
      "lat": 53.3449,
      "lng": -6.2763,
      "drink": "Pint of Guinness",
      "par": 4,
      "type": "irish",
      "tags": [
        "irish",
        "outdoor",
        "fish_and_chips"
      ]
    },
    {
      "id": "dub-211",
      "city": "dublin",
      "name": "Kennedy's",
      "address": "30-32 Westland Row",
      "lat": 53.3422,
      "lng": -6.2508,
      "drink": "Pint of Guinness",
      "par": 4,
      "type": "irish",
      "tags": [
        "irish",
        "outdoor",
        "burger",
        "food"
      ]
    },
    {
      "id": "dub-212",
      "city": "dublin",
      "name": "Keavan's Port",
      "address": "1 Camden Street Upper",
      "lat": 53.3335,
      "lng": -6.2652,
      "drink": "Pint of Guinness",
      "par": 3,
      "type": "kneipe",
      "tags": [
        "kneipe",
        "outdoor",
        "real-ale",
        "food"
      ]
    },
    {
      "id": "dub-213",
      "city": "dublin",
      "name": "The Yacht",
      "address": "8 Thorncastle Street",
      "district": "ringsend",
      "lat": 53.3421,
      "lng": -6.2275,
      "drink": "Pint of Guinness",
      "par": 3,
      "type": "kneipe",
      "tags": [
        "kneipe",
        "outdoor"
      ]
    },
    {
      "id": "dub-214",
      "city": "dublin",
      "name": "Thomas Clarke’s",
      "address": "35 O'Connell Street Upper",
      "lat": 53.3525,
      "lng": -6.2611,
      "drink": "Pint of Guinness",
      "par": 3,
      "type": "kneipe",
      "tags": [
        "kneipe",
        "food"
      ]
    },
    {
      "id": "dub-215",
      "city": "dublin",
      "name": "M. O’Brien",
      "address": "8-9 Sussex Terrace",
      "lat": 53.3313,
      "lng": -6.2516,
      "drink": "Pint of Guinness",
      "par": 3,
      "type": "kneipe",
      "tags": [
        "kneipe",
        "outdoor"
      ]
    },
    {
      "id": "dub-216",
      "city": "dublin",
      "name": "Molly's",
      "address": "101 Francis Street",
      "lat": 53.3406,
      "lng": -6.2745,
      "drink": "Pint of Guinness",
      "par": 3,
      "type": "kneipe",
      "tags": [
        "kneipe"
      ]
    },
    {
      "id": "dub-217",
      "city": "dublin",
      "name": "Pye",
      "address": "Main Street",
      "lat": 53.289,
      "lng": -6.2432,
      "drink": "Pint of Guinness",
      "par": 3,
      "type": "kneipe",
      "tags": [
        "kneipe",
        "burger",
        "pizza",
        "salad",
        "food"
      ]
    },
    {
      "id": "dub-218",
      "city": "dublin",
      "name": "Tailor's Hall Tavern",
      "address": "High Street",
      "lat": 53.3429,
      "lng": -6.2732,
      "drink": "Pint of Guinness",
      "par": 3,
      "type": "kneipe",
      "tags": [
        "kneipe"
      ]
    },
    {
      "id": "dub-219",
      "city": "dublin",
      "name": "Mill House",
      "address": "Kilmacud Road Lower",
      "lat": 53.2884,
      "lng": -6.2046,
      "drink": "Pint of Guinness",
      "par": 3,
      "type": "kneipe",
      "tags": [
        "kneipe"
      ]
    },
    {
      "id": "dub-220",
      "city": "dublin",
      "name": "Bolands",
      "address": "1 The Hill, Lower Kilmacud Road",
      "lat": 53.2888,
      "lng": -6.1983,
      "drink": "Pint of Guinness",
      "par": 3,
      "type": "kneipe",
      "tags": [
        "kneipe"
      ]
    },
    {
      "id": "dub-221",
      "city": "dublin",
      "name": "Ned O'Shea's",
      "address": "12 Bridge Street Lower",
      "lat": 53.3449,
      "lng": -6.2759,
      "drink": "Pint of Guinness",
      "par": 4,
      "type": "irish",
      "tags": [
        "irish"
      ]
    },
    {
      "id": "dub-222",
      "city": "dublin",
      "name": "Harty's bar",
      "address": "Nassau Street",
      "lat": 53.343,
      "lng": -6.2588,
      "drink": "Pint of Guinness",
      "par": 3,
      "type": "kneipe",
      "tags": [
        "kneipe",
        "outdoor"
      ]
    },
    {
      "id": "dub-223",
      "city": "dublin",
      "name": "T. Humphrey’s",
      "address": "79-81 Ranelagh",
      "lat": 53.3241,
      "lng": -6.2523,
      "drink": "Pint of Guinness",
      "par": 3,
      "type": "kneipe",
      "tags": [
        "kneipe"
      ]
    },
    {
      "id": "dub-224",
      "city": "dublin",
      "name": "Smyth’s",
      "address": "75-77 Ranelagh",
      "lat": 53.3241,
      "lng": -6.2523,
      "drink": "Pint of Guinness",
      "par": 3,
      "type": "kneipe",
      "tags": [
        "kneipe"
      ]
    },
    {
      "id": "dub-225",
      "city": "dublin",
      "name": "Cooper’s Corner",
      "address": "1 Bow Bridge",
      "lat": 53.3425,
      "lng": -6.2967,
      "drink": "Pint of Guinness",
      "par": 3,
      "type": "kneipe",
      "tags": [
        "kneipe",
        "food"
      ]
    },
    {
      "id": "dub-226",
      "city": "dublin",
      "name": "The Morris Bar",
      "address": "15 Talbot Street",
      "lat": 53.3507,
      "lng": -6.2553,
      "drink": "Pint of Guinness",
      "par": 3,
      "type": "kneipe",
      "tags": [
        "kneipe"
      ]
    },
    {
      "id": "dub-227",
      "city": "dublin",
      "name": "Quinn's",
      "address": "Address unknown",
      "lat": 53.3635,
      "lng": -6.2581,
      "drink": "Pint of Guinness",
      "par": 3,
      "type": "kneipe",
      "tags": [
        "kneipe"
      ]
    },
    {
      "id": "dub-228",
      "city": "dublin",
      "name": "The Sarah Curran",
      "address": "Address unknown",
      "lat": 53.2989,
      "lng": -6.2863,
      "drink": "Pint of Guinness",
      "par": 3,
      "type": "kneipe",
      "tags": [
        "kneipe"
      ]
    },
    {
      "id": "dub-229",
      "city": "dublin",
      "name": "Speaker Conolly",
      "address": "Firhouse Road",
      "lat": 53.2819,
      "lng": -6.341,
      "drink": "Pint of Guinness",
      "par": 3,
      "type": "kneipe",
      "tags": [
        "kneipe"
      ]
    },
    {
      "id": "dub-230",
      "city": "dublin",
      "name": "Brady's",
      "address": "Address unknown",
      "lat": 53.384,
      "lng": -6.3676,
      "drink": "Pint of Guinness",
      "par": 3,
      "type": "kneipe",
      "tags": [
        "kneipe"
      ]
    },
    {
      "id": "dub-231",
      "city": "dublin",
      "name": "The Bell",
      "address": "Castleknock Road",
      "lat": 53.3847,
      "lng": -6.3716,
      "drink": "Pint of Guinness",
      "par": 3,
      "type": "kneipe",
      "tags": [
        "kneipe"
      ]
    },
    {
      "id": "dub-232",
      "city": "dublin",
      "name": "The Balgriffin Inn",
      "address": "Malahide Road",
      "district": "balgriffin",
      "lat": 53.409,
      "lng": -6.1785,
      "drink": "Pint of Guinness",
      "par": 3,
      "type": "kneipe",
      "tags": [
        "kneipe",
        "outdoor"
      ]
    },
    {
      "id": "dub-233",
      "city": "dublin",
      "name": "The Racecourse Inn",
      "address": "Grange Road",
      "lat": 53.3967,
      "lng": -6.1371,
      "drink": "Pint of Guinness",
      "par": 3,
      "type": "kneipe",
      "tags": [
        "kneipe"
      ]
    },
    {
      "id": "dub-234",
      "city": "dublin",
      "name": "Newtown House",
      "address": "Malahide Road",
      "lat": 53.3965,
      "lng": -6.1889,
      "drink": "Pint of Guinness",
      "par": 3,
      "type": "kneipe",
      "tags": [
        "kneipe"
      ]
    },
    {
      "id": "dub-235",
      "city": "dublin",
      "name": "Harry Byrne’s",
      "address": "107-109 Howth Road",
      "district": "clontarf",
      "lat": 53.367,
      "lng": -6.2164,
      "drink": "Pint of Guinness",
      "par": 3,
      "type": "kneipe",
      "tags": [
        "kneipe"
      ]
    },
    {
      "id": "dub-236",
      "city": "dublin",
      "name": "The Brookwood Inn",
      "address": "Address unknown",
      "lat": 53.3995,
      "lng": -6.3747,
      "drink": "Pint of Guinness",
      "par": 3,
      "type": "kneipe",
      "tags": [
        "kneipe"
      ]
    },
    {
      "id": "dub-237",
      "city": "dublin",
      "name": "The Great Wood",
      "address": "Westend Village",
      "district": "blanchardstown",
      "lat": 53.3892,
      "lng": -6.3889,
      "drink": "Pint of Guinness",
      "par": 3,
      "type": "kneipe",
      "tags": [
        "kneipe",
        "food"
      ]
    },
    {
      "id": "dub-238",
      "city": "dublin",
      "name": "The Carpenter",
      "address": "Carpenterstown Road",
      "lat": 53.3719,
      "lng": -6.3892,
      "drink": "Pint of Guinness",
      "par": 3,
      "type": "kneipe",
      "tags": [
        "kneipe"
      ]
    },
    {
      "id": "dub-239",
      "city": "dublin",
      "name": "The Bernard Shaw",
      "address": "Cross Guns Bridge",
      "lat": 53.3647,
      "lng": -6.2714,
      "drink": "Pint of Guinness",
      "par": 3,
      "type": "kneipe",
      "tags": [
        "kneipe"
      ]
    },
    {
      "id": "dub-240",
      "city": "dublin",
      "name": "The Pennyblack",
      "address": "Castletymon Road",
      "lat": 53.2959,
      "lng": -6.3413,
      "drink": "Pint of Guinness",
      "par": 3,
      "type": "kneipe",
      "tags": [
        "kneipe"
      ]
    },
    {
      "id": "dub-241",
      "city": "dublin",
      "name": "Goggins",
      "address": "99 Monkstown Road",
      "lat": 53.2936,
      "lng": -6.1546,
      "drink": "Craft Beer",
      "par": 3,
      "type": "cocktailbar",
      "tags": [
        "cocktailbar"
      ]
    },
    {
      "id": "dub-242",
      "city": "dublin",
      "name": "The Yacht Tavern",
      "address": "8 Wellington Street",
      "lat": 53.2946,
      "lng": -6.1392,
      "drink": "Pint of Guinness",
      "par": 3,
      "type": "kneipe",
      "tags": [
        "kneipe"
      ]
    },
    {
      "id": "dub-243",
      "city": "dublin",
      "name": "Dunphy’s",
      "address": "41 George's Street Lower",
      "lat": 53.2932,
      "lng": -6.1388,
      "drink": "Pint of Guinness",
      "par": 3,
      "type": "kneipe",
      "tags": [
        "kneipe",
        "outdoor"
      ]
    },
    {
      "id": "dub-244",
      "city": "dublin",
      "name": "Buck Mulligan's",
      "address": "128 George's Street Lower",
      "lat": 53.2948,
      "lng": -6.1416,
      "drink": "Pint of Guinness",
      "par": 3,
      "type": "kneipe",
      "tags": [
        "kneipe"
      ]
    },
    {
      "id": "dub-245",
      "city": "dublin",
      "name": "The Church",
      "address": "Mary Street",
      "lat": 53.3486,
      "lng": -6.267,
      "drink": "Pint of Guinness",
      "par": 3,
      "type": "kneipe",
      "tags": [
        "kneipe",
        "outdoor"
      ]
    },
    {
      "id": "dub-246",
      "city": "dublin",
      "name": "The 51",
      "address": "51 Haddington Road",
      "lat": 53.3346,
      "lng": -6.2424,
      "drink": "Pint of Guinness",
      "par": 3,
      "type": "kneipe",
      "tags": [
        "kneipe"
      ]
    },
    {
      "id": "dub-247",
      "city": "dublin",
      "name": "Delany's",
      "address": "Address unknown",
      "lat": 53.2869,
      "lng": -6.328,
      "drink": "Pint of Guinness",
      "par": 3,
      "type": "kneipe",
      "tags": [
        "kneipe"
      ]
    },
    {
      "id": "dub-248",
      "city": "dublin",
      "name": "Ryan’s Beggar’s Bush",
      "address": "112-115 Haddington Road",
      "lat": 53.3363,
      "lng": -6.2367,
      "drink": "Pint of Guinness",
      "par": 3,
      "type": "kneipe",
      "tags": [
        "kneipe"
      ]
    },
    {
      "id": "dub-249",
      "city": "dublin",
      "name": "The Waterloo",
      "address": "36 Baggot Street Upper",
      "lat": 53.3335,
      "lng": -6.2431,
      "drink": "Pint of Guinness",
      "par": 3,
      "type": "kneipe",
      "tags": [
        "kneipe",
        "food"
      ]
    },
    {
      "id": "dub-250",
      "city": "dublin",
      "name": "Searsons",
      "address": "42-44 Baggot Street Upper",
      "lat": 53.3334,
      "lng": -6.2428,
      "drink": "Pint of Guinness",
      "par": 3,
      "type": "kneipe",
      "tags": [
        "kneipe",
        "food"
      ]
    },
    {
      "id": "dub-251",
      "city": "dublin",
      "name": "Dundrum House",
      "address": "57 Main Street",
      "lat": 53.2894,
      "lng": -6.2433,
      "drink": "Pint of Guinness",
      "par": 3,
      "type": "kneipe",
      "tags": [
        "kneipe"
      ]
    },
    {
      "id": "dub-252",
      "city": "dublin",
      "name": "O'Dywers",
      "address": "118 Kilmacud Road Lower",
      "lat": 53.2886,
      "lng": -6.216,
      "drink": "Pint of Guinness",
      "par": 4,
      "type": "irish",
      "tags": [
        "irish",
        "food"
      ]
    },
    {
      "id": "dub-253",
      "city": "dublin",
      "name": "The Bath",
      "address": "26 Bath Avenue",
      "lat": 53.3375,
      "lng": -6.2322,
      "drink": "Pint of Guinness",
      "par": 3,
      "type": "kneipe",
      "tags": [
        "kneipe"
      ]
    },
    {
      "id": "dub-254",
      "city": "dublin",
      "name": "Slattery’s",
      "address": "62 Grand Canal Street Upper",
      "lat": 53.3373,
      "lng": -6.2342,
      "drink": "Pint of Guinness",
      "par": 3,
      "type": "kneipe",
      "tags": [
        "kneipe",
        "outdoor"
      ]
    },
    {
      "id": "dub-255",
      "city": "dublin",
      "name": "The Cow",
      "address": "2 Shelbourne Road",
      "lat": 53.337,
      "lng": -6.234,
      "drink": "Pint of Guinness",
      "par": 3,
      "type": "kneipe",
      "tags": [
        "kneipe",
        "food"
      ]
    },
    {
      "id": "dub-256",
      "city": "dublin",
      "name": "The Blue Haven",
      "address": "1A Ballyroan Road",
      "lat": 53.2936,
      "lng": -6.3084,
      "drink": "Pint of Guinness",
      "par": 3,
      "type": "kneipe",
      "tags": [
        "kneipe"
      ]
    },
    {
      "id": "dub-257",
      "city": "dublin",
      "name": "The Ferryman",
      "address": "35-36 Sir John Rogerson's Quay",
      "lat": 53.346,
      "lng": -6.2407,
      "drink": "Pint of Guinness",
      "par": 3,
      "type": "kneipe",
      "tags": [
        "kneipe",
        "outdoor",
        "food"
      ]
    },
    {
      "id": "dub-258",
      "city": "dublin",
      "name": "The Bottler’s Bank",
      "address": "6 Terenure Road East",
      "lat": 53.3121,
      "lng": -6.275,
      "drink": "Pint of Guinness",
      "par": 3,
      "type": "kneipe",
      "tags": [
        "kneipe"
      ]
    },
    {
      "id": "dub-259",
      "city": "dublin",
      "name": "The Dropping Well",
      "address": "Milltown Road",
      "lat": 53.3081,
      "lng": -6.2549,
      "drink": "Pint of Guinness",
      "par": 3,
      "type": "kneipe",
      "tags": [
        "kneipe",
        "burger",
        "seafood",
        "food"
      ]
    },
    {
      "id": "dub-260",
      "city": "dublin",
      "name": "Smyth’s",
      "address": "10 Haddington Road",
      "lat": 53.3348,
      "lng": -6.2435,
      "drink": "Pint of Guinness",
      "par": 3,
      "type": "kneipe",
      "tags": [
        "kneipe"
      ]
    },
    {
      "id": "dub-261",
      "city": "dublin",
      "name": "The Goat Grill",
      "address": "Taney Road",
      "lat": 53.2926,
      "lng": -6.23,
      "drink": "Pint of Guinness",
      "par": 3,
      "type": "kneipe",
      "tags": [
        "kneipe"
      ]
    },
    {
      "id": "dub-262",
      "city": "dublin",
      "name": "Becky Morgan's",
      "address": "9 Grand Canal Street Lower",
      "lat": 53.3397,
      "lng": -6.2421,
      "drink": "Pint of Guinness",
      "par": 3,
      "type": "kneipe",
      "tags": [
        "kneipe"
      ]
    },
    {
      "id": "dub-263",
      "city": "dublin",
      "name": "The Gasworks",
      "address": "Grand Canal Street Upper",
      "lat": 53.338,
      "lng": -6.2375,
      "drink": "Pint of Guinness",
      "par": 3,
      "type": "kneipe",
      "tags": [
        "kneipe",
        "outdoor"
      ]
    },
    {
      "id": "dub-264",
      "city": "dublin",
      "name": "Farmer Brown’s",
      "address": "68 Clonskeagh Road",
      "lat": 53.3141,
      "lng": -6.2388,
      "drink": "Pint of Guinness",
      "par": 3,
      "type": "kneipe",
      "tags": [
        "kneipe",
        "outdoor",
        "food"
      ]
    },
    {
      "id": "dub-265",
      "city": "dublin",
      "name": "The Glenside",
      "address": "20 Landscape Road",
      "lat": 53.2997,
      "lng": -6.268,
      "drink": "Pint of Guinness",
      "par": 3,
      "type": "kneipe",
      "tags": [
        "kneipe"
      ]
    },
    {
      "id": "dub-266",
      "city": "dublin",
      "name": "John Kavanagh’s \"The Gravediggers\"",
      "address": "1-2 Prospect Square",
      "lat": 53.3697,
      "lng": -6.2719,
      "drink": "Pint of Guinness",
      "par": 3,
      "type": "kneipe",
      "tags": [
        "kneipe",
        "food"
      ]
    },
    {
      "id": "dub-267",
      "city": "dublin",
      "name": "Flood’s",
      "address": "140-142 Sundrive Road",
      "lat": 53.3245,
      "lng": -6.2964,
      "drink": "Pint of Guinness",
      "par": 3,
      "type": "kneipe",
      "tags": [
        "kneipe"
      ]
    },
    {
      "id": "dub-268",
      "city": "dublin",
      "name": "The Bottle Tower",
      "address": "1 Beaumont Avenue",
      "lat": 53.295,
      "lng": -6.2569,
      "drink": "Pint of Guinness",
      "par": 3,
      "type": "kneipe",
      "tags": [
        "kneipe",
        "food"
      ]
    },
    {
      "id": "dub-269",
      "city": "dublin",
      "name": "The Patriot’s Inn",
      "address": "760 South Circular Road",
      "lat": 53.3417,
      "lng": -6.3076,
      "drink": "Pint of Guinness",
      "par": 3,
      "type": "kneipe",
      "tags": [
        "kneipe"
      ]
    },
    {
      "id": "dub-270",
      "city": "dublin",
      "name": "Artane House",
      "address": "Address unknown",
      "lat": 53.3844,
      "lng": -6.2141,
      "drink": "Pint of Guinness",
      "par": 3,
      "type": "kneipe",
      "tags": [
        "kneipe"
      ]
    },
    {
      "id": "dub-271",
      "city": "dublin",
      "name": "The Brian Boru",
      "address": "Prospect Road",
      "lat": 53.3652,
      "lng": -6.2722,
      "drink": "Pint of Guinness",
      "par": 3,
      "type": "kneipe",
      "tags": [
        "kneipe"
      ]
    },
    {
      "id": "dub-272",
      "city": "dublin",
      "name": "Ryan’s",
      "address": "92 Camden Street Lower",
      "lat": 53.3363,
      "lng": -6.2658,
      "drink": "Pint of Guinness",
      "par": 3,
      "type": "kneipe",
      "tags": [
        "kneipe"
      ]
    },
    {
      "id": "dub-273",
      "city": "dublin",
      "name": "Whelan’s",
      "address": "25 Wexford Street",
      "lat": 53.3366,
      "lng": -6.2659,
      "drink": "Pint of Guinness",
      "par": 3,
      "type": "kneipe",
      "tags": [
        "kneipe"
      ]
    },
    {
      "id": "dub-274",
      "city": "dublin",
      "name": "Devitt’s",
      "address": "78 Camden Street Lower",
      "lat": 53.3356,
      "lng": -6.2655,
      "drink": "Pint of Guinness",
      "par": 3,
      "type": "kneipe",
      "tags": [
        "kneipe"
      ]
    },
    {
      "id": "dub-275",
      "city": "dublin",
      "name": "The Eden House",
      "address": "Grange Road",
      "lat": 53.2811,
      "lng": -6.2757,
      "drink": "Pint of Guinness",
      "par": 3,
      "type": "kneipe",
      "tags": [
        "kneipe"
      ]
    },
    {
      "id": "dub-276",
      "city": "dublin",
      "name": "The Bayside Inn",
      "address": "Bayside Square North",
      "district": "bayside",
      "lat": 53.3889,
      "lng": -6.1411,
      "drink": "Pint of Guinness",
      "par": 3,
      "type": "kneipe",
      "tags": [
        "kneipe"
      ]
    },
    {
      "id": "dub-277",
      "city": "dublin",
      "name": "Fitzgerald's",
      "address": "22 Aston Quay",
      "lat": 53.3466,
      "lng": -6.2596,
      "drink": "Pint of Guinness",
      "par": 3,
      "type": "kneipe",
      "tags": [
        "kneipe",
        "outdoor"
      ]
    },
    {
      "id": "dub-278",
      "city": "dublin",
      "name": "O’Connell’s",
      "address": "30 Bachelors Walk",
      "lat": 53.3474,
      "lng": -6.2603,
      "drink": "Pint of Guinness",
      "par": 3,
      "type": "kneipe",
      "tags": [
        "kneipe",
        "outdoor",
        "food"
      ]
    },
    {
      "id": "dub-279",
      "city": "dublin",
      "name": "The Workshop",
      "address": "10 George's Quay",
      "lat": 53.3473,
      "lng": -6.2548,
      "drink": "Craft IPA Pint",
      "par": 3,
      "type": "craft",
      "tags": [
        "craft"
      ]
    },
    {
      "id": "dub-280",
      "city": "dublin",
      "name": "Mulligan's",
      "address": "8-9 Poolbeg Street",
      "lat": 53.347,
      "lng": -6.2555,
      "drink": "Pint of Guinness",
      "par": 3,
      "type": "kneipe",
      "tags": [
        "kneipe"
      ]
    },
    {
      "id": "dub-281",
      "city": "dublin",
      "name": "Chaplin’s",
      "address": "2 Hawkins Street",
      "lat": 53.3462,
      "lng": -6.2572,
      "drink": "Pint of Guinness",
      "par": 3,
      "type": "kneipe",
      "tags": [
        "kneipe"
      ]
    },
    {
      "id": "dub-282",
      "city": "dublin",
      "name": "Cassidy's",
      "address": "27 Westmoreland Street",
      "lat": 53.3464,
      "lng": -6.2587,
      "drink": "Pint of Guinness",
      "par": 3,
      "type": "kneipe",
      "tags": [
        "kneipe"
      ]
    },
    {
      "id": "dub-283",
      "city": "dublin",
      "name": "Bowe’s",
      "address": "31 Fleet Street",
      "lat": 53.3458,
      "lng": -6.2579,
      "drink": "Pint of Guinness",
      "par": 3,
      "type": "kneipe",
      "tags": [
        "kneipe"
      ]
    },
    {
      "id": "dub-284",
      "city": "dublin",
      "name": "Jack Nealon",
      "address": "165-166 Capel Street",
      "lat": 53.3464,
      "lng": -6.2682,
      "drink": "Pint of Guinness",
      "par": 3,
      "type": "kneipe",
      "tags": [
        "kneipe"
      ]
    },
    {
      "id": "dub-285",
      "city": "dublin",
      "name": "The Stag's Head",
      "address": "1 Dame Court",
      "lat": 53.3438,
      "lng": -6.2635,
      "drink": "Pint of Guinness",
      "par": 3,
      "type": "kneipe",
      "tags": [
        "kneipe",
        "outdoor"
      ]
    },
    {
      "id": "dub-286",
      "city": "dublin",
      "name": "4 Dame Lane",
      "address": "4 Dame Lane",
      "lat": 53.3438,
      "lng": -6.2629,
      "drink": "Pint of Guinness",
      "par": 3,
      "type": "kneipe",
      "tags": [
        "kneipe"
      ]
    },
    {
      "id": "dub-287",
      "city": "dublin",
      "name": "J. McNeill",
      "address": "140 Capel Street",
      "lat": 53.3478,
      "lng": -6.2688,
      "drink": "Pint of Guinness",
      "par": 4,
      "type": "irish",
      "tags": [
        "irish"
      ]
    },
    {
      "id": "dub-288",
      "city": "dublin",
      "name": "Slattery’s",
      "address": "129-131 Capel Street",
      "lat": 53.3483,
      "lng": -6.2689,
      "drink": "Pint of Guinness",
      "par": 3,
      "type": "kneipe",
      "tags": [
        "kneipe",
        "outdoor"
      ]
    },
    {
      "id": "dub-289",
      "city": "dublin",
      "name": "The Boar’s Head",
      "address": "149 Capel Street",
      "lat": 53.3474,
      "lng": -6.2686,
      "drink": "Pint of Guinness",
      "par": 3,
      "type": "kneipe",
      "tags": [
        "kneipe",
        "outdoor"
      ]
    },
    {
      "id": "dub-290",
      "city": "dublin",
      "name": "J. Grogan's",
      "address": "15 William Street South",
      "lat": 53.3422,
      "lng": -6.2627,
      "drink": "Pint of Guinness",
      "par": 3,
      "type": "kneipe",
      "tags": [
        "kneipe"
      ]
    },
    {
      "id": "dub-291",
      "city": "dublin",
      "name": "Arthur’s",
      "address": "28 Thomas Street",
      "lat": 53.3431,
      "lng": -6.2817,
      "drink": "Pint of Guinness",
      "par": 3,
      "type": "kneipe",
      "tags": [
        "kneipe"
      ]
    },
    {
      "id": "dub-292",
      "city": "dublin",
      "name": "Dudley’s",
      "address": "47-48 Thomas Street",
      "lat": 53.3426,
      "lng": -6.2789,
      "drink": "Pint of Guinness",
      "par": 3,
      "type": "kneipe",
      "tags": [
        "kneipe"
      ]
    },
    {
      "id": "dub-293",
      "city": "dublin",
      "name": "Lundy Foot’s",
      "address": "13 Essex Gate",
      "lat": 53.3449,
      "lng": -6.268,
      "drink": "Pint of Guinness",
      "par": 4,
      "type": "irish",
      "tags": [
        "irish",
        "outdoor",
        "burger"
      ]
    },
    {
      "id": "dub-294",
      "city": "dublin",
      "name": "The Beer Temple",
      "address": "1-3 Parliament Street",
      "lat": 53.3443,
      "lng": -6.2671,
      "drink": "Pint of Guinness",
      "par": 3,
      "type": "kneipe",
      "tags": [
        "kneipe",
        "outdoor"
      ]
    },
    {
      "id": "dub-295",
      "city": "dublin",
      "name": "Peter's Pub",
      "address": "1 Johnson's Place",
      "lat": 53.3409,
      "lng": -6.2632,
      "drink": "Pint of Guinness",
      "par": 3,
      "type": "kneipe",
      "tags": [
        "kneipe"
      ]
    },
    {
      "id": "dub-296",
      "city": "dublin",
      "name": "Neary’s Bar & Lounge",
      "address": "1 Chatham Street",
      "lat": 53.3407,
      "lng": -6.2611,
      "drink": "Craft Beer",
      "par": 3,
      "type": "cocktailbar",
      "tags": [
        "cocktailbar"
      ]
    },
    {
      "id": "dub-297",
      "city": "dublin",
      "name": "Bar Rua",
      "address": "32 Clarendon Street",
      "lat": 53.3411,
      "lng": -6.2624,
      "drink": "Pint of Guinness",
      "par": 3,
      "type": "kneipe",
      "tags": [
        "kneipe",
        "food"
      ]
    },
    {
      "id": "dub-298",
      "city": "dublin",
      "name": "Sheehan’s",
      "address": "17 Chatham Street",
      "lat": 53.341,
      "lng": -6.2618,
      "drink": "Pint of Guinness",
      "par": 3,
      "type": "kneipe",
      "tags": [
        "kneipe"
      ]
    },
    {
      "id": "dub-299",
      "city": "dublin",
      "name": "Kehoe’s Pub",
      "address": "9 Anne Street South",
      "lat": 53.3412,
      "lng": -6.2594,
      "drink": "Pint of Guinness",
      "par": 3,
      "type": "kneipe",
      "tags": [
        "kneipe"
      ]
    },
    {
      "id": "dub-300",
      "city": "dublin",
      "name": "The Yacht",
      "address": "73 Clontarf Road",
      "lat": 53.3618,
      "lng": -6.2152,
      "drink": "Pint of Guinness",
      "par": 3,
      "type": "kneipe",
      "tags": [
        "kneipe",
        "food"
      ]
    },
    {
      "id": "dub-301",
      "city": "dublin",
      "name": "Lincoln’s Inn",
      "address": "18-19 Lincoln Place",
      "lat": 53.342,
      "lng": -6.2525,
      "drink": "Pint of Guinness",
      "par": 3,
      "type": "kneipe",
      "tags": [
        "kneipe"
      ]
    },
    {
      "id": "dub-302",
      "city": "dublin",
      "name": "McGrattan’s Café Bar",
      "address": "76-77 Fitzwilliam Lane",
      "lat": 53.3386,
      "lng": -6.2512,
      "drink": "Pint of Guinness",
      "par": 4,
      "type": "irish",
      "tags": [
        "irish",
        "food"
      ]
    },
    {
      "id": "dub-303",
      "city": "dublin",
      "name": "Connolly’s",
      "address": "198 Clontarf Road",
      "lat": 53.3592,
      "lng": -6.1955,
      "drink": "Pint of Guinness",
      "par": 3,
      "type": "kneipe",
      "tags": [
        "kneipe"
      ]
    },
    {
      "id": "dub-304",
      "city": "dublin",
      "name": "The Silver Penny",
      "address": "12A Abbey Street Lower",
      "lat": 53.3491,
      "lng": -6.2565,
      "drink": "Pint of Guinness",
      "par": 3,
      "type": "kneipe",
      "tags": [
        "kneipe"
      ]
    },
    {
      "id": "dub-305",
      "city": "dublin",
      "name": "T.P. Smith’s",
      "address": "9-10 Jervis Street",
      "lat": 53.3475,
      "lng": -6.266,
      "drink": "Pint of Guinness",
      "par": 3,
      "type": "kneipe",
      "tags": [
        "kneipe",
        "outdoor",
        "food"
      ]
    },
    {
      "id": "dub-306",
      "city": "dublin",
      "name": "The Grand Central Bar",
      "address": "10-11 O'Connell Street Lower",
      "lat": 53.3483,
      "lng": -6.2592,
      "drink": "Pint of Guinness",
      "par": 3,
      "type": "kneipe",
      "tags": [
        "kneipe",
        "outdoor",
        "food"
      ]
    },
    {
      "id": "dub-307",
      "city": "dublin",
      "name": "The Wiley Fox",
      "address": "28 Eden Quay",
      "lat": 53.3483,
      "lng": -6.256,
      "drink": "Pint of Guinness",
      "par": 3,
      "type": "kneipe",
      "tags": [
        "kneipe",
        "food"
      ]
    },
    {
      "id": "dub-308",
      "city": "dublin",
      "name": "The Grand Social",
      "address": "35 Liffey Street Lower",
      "lat": 53.3469,
      "lng": -6.2635,
      "drink": "Pint of Guinness",
      "par": 3,
      "type": "kneipe",
      "tags": [
        "kneipe",
        "outdoor"
      ]
    },
    {
      "id": "dub-309",
      "city": "dublin",
      "name": "The Star Bar",
      "address": "43-44 Baggot Street Lower",
      "lat": 53.3368,
      "lng": -6.2487,
      "drink": "Pint of Guinness",
      "par": 3,
      "type": "kneipe",
      "tags": [
        "kneipe",
        "food"
      ]
    },
    {
      "id": "dub-310",
      "city": "dublin",
      "name": "Ashtons",
      "address": "Address unknown",
      "lat": 53.316,
      "lng": -6.2371,
      "drink": "Pint of Guinness",
      "par": 3,
      "type": "kneipe",
      "tags": [
        "kneipe"
      ]
    },
    {
      "id": "dub-311",
      "city": "dublin",
      "name": "The Yellow House",
      "address": "1 Willbrook Road",
      "district": "rathfarnham",
      "lat": 53.2967,
      "lng": -6.285,
      "drink": "Pint of Guinness",
      "par": 3,
      "type": "kneipe",
      "tags": [
        "kneipe",
        "food"
      ]
    },
    {
      "id": "dub-312",
      "city": "dublin",
      "name": "O’Neill’s of Pearse Street",
      "address": "36-37 Pearse Street",
      "lat": 53.3449,
      "lng": -6.2524,
      "drink": "Pint of Guinness",
      "par": 3,
      "type": "kneipe",
      "tags": [
        "kneipe"
      ]
    },
    {
      "id": "dub-313",
      "city": "dublin",
      "name": "Moss Lane",
      "address": "37B Pearse Street",
      "lat": 53.3449,
      "lng": -6.2521,
      "drink": "Pint of Guinness",
      "par": 3,
      "type": "kneipe",
      "tags": [
        "kneipe",
        "outdoor"
      ]
    },
    {
      "id": "dub-314",
      "city": "dublin",
      "name": "The Flowing Tide",
      "address": "9 Abbey Street Lower",
      "lat": 53.3488,
      "lng": -6.2578,
      "drink": "Pint of Guinness",
      "par": 3,
      "type": "kneipe",
      "tags": [
        "kneipe"
      ]
    },
    {
      "id": "dub-315",
      "city": "dublin",
      "name": "James Toner",
      "address": "139 Baggot Street Lower",
      "lat": 53.3377,
      "lng": -6.2525,
      "drink": "Pint of Guinness",
      "par": 3,
      "type": "kneipe",
      "tags": [
        "kneipe"
      ]
    },
    {
      "id": "dub-316",
      "city": "dublin",
      "name": "Bruxelles",
      "address": "7-8 Harry Street",
      "lat": 53.3414,
      "lng": -6.2608,
      "drink": "Pint of Guinness",
      "par": 3,
      "type": "kneipe",
      "tags": [
        "kneipe"
      ]
    },
    {
      "id": "dub-317",
      "city": "dublin",
      "name": "The Bankers",
      "address": "16 Trinity Street",
      "lat": 53.344,
      "lng": -6.2625,
      "drink": "Pint of Guinness",
      "par": 3,
      "type": "kneipe",
      "tags": [
        "kneipe"
      ]
    },
    {
      "id": "dub-318",
      "city": "dublin",
      "name": "Matt the Thresher",
      "address": "31-32 Pembroke Street Lower",
      "lat": 53.337,
      "lng": -6.2516,
      "drink": "Pint of Guinness",
      "par": 3,
      "type": "kneipe",
      "tags": [
        "kneipe"
      ]
    },
    {
      "id": "dub-319",
      "city": "dublin",
      "name": "W.Plunket",
      "address": "52 Middle Abbey Street",
      "lat": 53.3479,
      "lng": -6.2625,
      "drink": "Pint of Guinness",
      "par": 3,
      "type": "kneipe",
      "tags": [
        "kneipe",
        "outdoor",
        "burger",
        "fish_and_chips",
        "pasta",
        "food"
      ]
    },
    {
      "id": "dub-320",
      "city": "dublin",
      "name": "The Gin Palace",
      "address": "42 Middle Abbey Street",
      "lat": 53.3478,
      "lng": -6.2634,
      "drink": "Craft Beer",
      "par": 3,
      "type": "cocktailbar",
      "tags": [
        "cocktailbar"
      ]
    },
    {
      "id": "dub-321",
      "city": "dublin",
      "name": "The Oval",
      "address": "78 Middle Abbey Street",
      "lat": 53.3485,
      "lng": -6.2603,
      "drink": "Pint of Guinness",
      "par": 3,
      "type": "kneipe",
      "tags": [
        "kneipe"
      ]
    },
    {
      "id": "dub-322",
      "city": "dublin",
      "name": "P. McCormack and Sons",
      "address": "67 Mounttown Road Lower",
      "lat": 53.2864,
      "lng": -6.1458,
      "drink": "Pint of Guinness",
      "par": 4,
      "type": "irish",
      "tags": [
        "irish",
        "outdoor",
        "food"
      ]
    },
    {
      "id": "dub-323",
      "city": "dublin",
      "name": "The Vat House",
      "address": "3 Anglesea Street",
      "lat": 53.3446,
      "lng": -6.262,
      "drink": "Pint of Guinness",
      "par": 3,
      "type": "kneipe",
      "tags": [
        "kneipe"
      ]
    },
    {
      "id": "dub-324",
      "city": "dublin",
      "name": "The Auld Triangle",
      "address": "28 Dorset Street Lower",
      "lat": 53.359,
      "lng": -6.2616,
      "drink": "Pint of Guinness",
      "par": 3,
      "type": "kneipe",
      "tags": [
        "kneipe"
      ]
    },
    {
      "id": "dub-325",
      "city": "dublin",
      "name": "The Deer’s Head",
      "address": "151-152 Parnell Street",
      "lat": 53.3534,
      "lng": -6.2602,
      "drink": "Pint of Guinness",
      "par": 3,
      "type": "kneipe",
      "tags": [
        "kneipe"
      ]
    },
    {
      "id": "dub-326",
      "city": "dublin",
      "name": "Hophouse",
      "address": "160 Parnell Street",
      "lat": 53.353,
      "lng": -6.2608,
      "drink": "Craft IPA Pint",
      "par": 3,
      "type": "craft",
      "tags": [
        "craft",
        "outdoor"
      ]
    },
    {
      "id": "dub-327",
      "city": "dublin",
      "name": "The Harbourmaster Pub",
      "address": "Custom House Docks",
      "lat": 53.35,
      "lng": -6.249,
      "drink": "Pint of Guinness",
      "par": 3,
      "type": "kneipe",
      "tags": [
        "kneipe"
      ]
    },
    {
      "id": "dub-328",
      "city": "dublin",
      "name": "The Ginger Man",
      "address": "39-40 Fenian Street",
      "lat": 53.3419,
      "lng": -6.2495,
      "drink": "Craft Beer",
      "par": 3,
      "type": "cocktailbar",
      "tags": [
        "cocktailbar"
      ]
    },
    {
      "id": "dub-329",
      "city": "dublin",
      "name": "The International Bar",
      "address": "23 Wicklow Street",
      "lat": 53.3431,
      "lng": -6.2618,
      "drink": "Pint of Guinness",
      "par": 3,
      "type": "kneipe",
      "tags": [
        "kneipe",
        "outdoor"
      ]
    },
    {
      "id": "dub-330",
      "city": "dublin",
      "name": "O'Donoghue's",
      "address": "15 Suffolk Street",
      "lat": 53.3435,
      "lng": -6.2597,
      "drink": "Pint of Guinness",
      "par": 4,
      "type": "irish",
      "tags": [
        "irish"
      ]
    },
    {
      "id": "dub-331",
      "city": "dublin",
      "name": "The Gate Bar",
      "address": "153-155 Crumlin Road",
      "lat": 53.3286,
      "lng": -6.3033,
      "drink": "Pint of Guinness",
      "par": 3,
      "type": "kneipe",
      "tags": [
        "kneipe"
      ]
    },
    {
      "id": "dub-332",
      "city": "dublin",
      "name": "The Deputy Mayor",
      "address": "Address unknown",
      "lat": 53.4013,
      "lng": -6.2973,
      "drink": "Pint of Guinness",
      "par": 3,
      "type": "kneipe",
      "tags": [
        "kneipe"
      ]
    },