{
  "key": "manchester",
  "prefix": "man",
  "label": "Manchester",
  "bbox": "migrated",
  "defaultDrink": "Pint of Lager",
  "scrapedAt": "2026-04-03T08:03:05.791Z",
  "barCount": 813,
  "bars": [
    {
      "id": "man-001",
      "city": "manchester",
      "name": "Ducie Arms",
      "address": "Address unknown",
      "lat": 53.4632,
      "lng": -2.235,
      "drink": "Pint of Lager",
      "par": 3,
      "type": "kneipe",
      "tags": [
        "kneipe"
      ]
    },
    {
      "id": "man-002",
      "city": "manchester",
      "name": "Kro Bar",
      "address": "325 Oxford Road",
      "lat": 53.4649,
      "lng": -2.2319,
      "drink": "Pint of Lager",
      "par": 3,
      "type": "kneipe",
      "tags": [
        "kneipe",
        "real-ale",
        "danish"
      ]
    },
    {
      "id": "man-003",
      "city": "manchester",
      "name": "The Temple Inn",
      "address": "Address unknown",
      "lat": 53.4205,
      "lng": -2.3052,
      "drink": "Pint of Lager",
      "par": 3,
      "type": "kneipe",
      "tags": [
        "kneipe",
        "real-ale"
      ]
    },
    {
      "id": "man-004",
      "city": "manchester",
      "name": "Sandbar",
      "address": "120 Grosvenor Street",
      "lat": 53.4707,
      "lng": -2.236,
      "drink": "Pint of Lager",
      "par": 3,
      "type": "kneipe",
      "tags": [
        "kneipe",
        "real-ale"
      ]
    },
    {
      "id": "man-005",
      "city": "manchester",
      "name": "The Flour and Flagon",
      "address": "Grosvenor Street",
      "lat": 53.4705,
      "lng": -2.2365,
      "drink": "Pint of Lager",
      "par": 3,
      "type": "kneipe",
      "tags": [
        "kneipe",
        "food"
      ]
    },
    {
      "id": "man-006",
      "city": "manchester",
      "name": "Oxnoble",
      "address": "71 Liverpool Road",
      "lat": 53.4763,
      "lng": -2.254,
      "drink": "Pint of Lager",
      "par": 3,
      "type": "kneipe",
      "tags": [
        "kneipe",
        "outdoor"
      ]
    },
    {
      "id": "man-007",
      "city": "manchester",
      "name": "The Big Hands",
      "address": "Address unknown",
      "lat": 53.4629,
      "lng": -2.2304,
      "drink": "Pint of Lager",
      "par": 3,
      "type": "kneipe",
      "tags": [
        "kneipe"
      ]
    },
    {
      "id": "man-008",
      "city": "manchester",
      "name": "The Ford Madox Brown",
      "address": "1 Wilmslow Park Wilmslow Road",
      "lat": 53.4582,
      "lng": -2.2267,
      "drink": "Pint of Lager",
      "par": 3,
      "type": "kneipe",
      "tags": [
        "kneipe",
        "outdoor",
        "real-ale"
      ]
    },
    {
      "id": "man-009",
      "city": "manchester",
      "name": "Albert Wilson",
      "address": "Wilmslow Road",
      "lat": 53.4344,
      "lng": -2.2281,
      "drink": "Pint of Lager",
      "par": 3,
      "type": "kneipe",
      "tags": [
        "kneipe"
      ]
    },
    {
      "id": "man-010",
      "city": "manchester",
      "name": "The Orion",
      "address": "Address unknown",
      "lat": 53.4334,
      "lng": -2.2306,
      "drink": "Pint of Lager",
      "par": 3,
      "type": "kneipe",
      "tags": [
        "kneipe"
      ]
    },
    {
      "id": "man-011",
      "city": "manchester",
      "name": "The Hilary Step",
      "address": "Address unknown",
      "lat": 53.4517,
      "lng": -2.2694,
      "drink": "Pint of Lager",
      "par": 3,
      "type": "kneipe",
      "tags": [
        "kneipe",
        "real-ale"
      ]
    },
    {
      "id": "man-012",
      "city": "manchester",
      "name": "Jolly Carter",
      "address": "Address unknown",
      "lat": 53.48,
      "lng": -2.1566,
      "drink": "Pint of Lager",
      "par": 3,
      "type": "kneipe",
      "tags": [
        "kneipe"
      ]
    },
    {
      "id": "man-013",
      "city": "manchester",
      "name": "Royal Oak",
      "address": "Address unknown",
      "lat": 53.4802,
      "lng": -2.1523,
      "drink": "Pint of Lager",
      "par": 3,
      "type": "kneipe",
      "tags": [
        "kneipe"
      ]
    },
    {
      "id": "man-014",
      "city": "manchester",
      "name": "La Fardy",
      "address": "604-606 Oldham Road",
      "district": "failsworth",
      "lat": 53.5139,
      "lng": -2.152,
      "drink": "Pint of Lager",
      "par": 3,
      "type": "kneipe",
      "tags": [
        "kneipe"
      ]
    },
    {
      "id": "man-015",
      "city": "manchester",
      "name": "Dutch Birds Inn",
      "address": "636-638 Oldham Road",
      "district": "failsworth",
      "lat": 53.5146,
      "lng": -2.151,
      "drink": "Pint of Lager",
      "par": 3,
      "type": "kneipe",
      "tags": [
        "kneipe"
      ]
    },
    {
      "id": "man-016",
      "city": "manchester",
      "name": "The Old Monkey",
      "address": "90-92 Portland Street",
      "lat": 53.4777,
      "lng": -2.2401,
      "drink": "Pint of Lager",
      "par": 3,
      "type": "kneipe",
      "tags": [
        "kneipe",
        "real-ale"
      ]
    },
    {
      "id": "man-017",
      "city": "manchester",
      "name": "Red Lion",
      "address": "Address unknown",
      "lat": 53.4566,
      "lng": -2.2157,
      "drink": "Pint of Lager",
      "par": 3,
      "type": "kneipe",
      "tags": [
        "kneipe"
      ]
    },
    {
      "id": "man-018",
      "city": "manchester",
      "name": "The Crown & Kettle",
      "address": "2 Oldham Road",
      "lat": 53.4848,
      "lng": -2.2324,
      "drink": "Pint of Lager",
      "par": 3,
      "type": "kneipe",
      "tags": [
        "kneipe",
        "real-ale",
        "food"
      ]
    },
    {
      "id": "man-019",
      "city": "manchester",
      "name": "Apsley Cottage",
      "address": "1 Apsley Grove",
      "lat": 53.4693,
      "lng": -2.2216,
      "drink": "Pint of Lager",
      "par": 3,
      "type": "kneipe",
      "tags": [
        "kneipe"
      ]
    },
    {
      "id": "man-020",
      "city": "manchester",
      "name": "Marble Arch Inn",
      "address": "73 Rochdale Road",
      "lat": 53.4882,
      "lng": -2.2323,
      "drink": "Pint of Lager",
      "par": 3,
      "type": "kneipe",
      "tags": [
        "kneipe",
        "real-ale",
        "food"
      ]
    },
    {
      "id": "man-021",
      "city": "manchester",
      "name": "Lammars",
      "address": "57 Hilton Street",
      "lat": 53.4811,
      "lng": -2.2315,
      "drink": "Pint of Lager",
      "par": 3,
      "type": "kneipe",
      "tags": [
        "kneipe"
      ]
    },
    {
      "id": "man-022",
      "city": "manchester",
      "name": "Bay Horse PH (Closed)",
      "address": "Address unknown",
      "lat": 53.492,
      "lng": -2.1654,
      "drink": "Pint of Lager",
      "par": 3,
      "type": "kneipe",
      "tags": [
        "kneipe"
      ]
    },
    {
      "id": "man-023",
      "city": "manchester",
      "name": "Crown & Anchor",
      "address": "41 Hilton Street",
      "lat": 53.4819,
      "lng": -2.2322,
      "drink": "Pint of Lager",
      "par": 3,
      "type": "kneipe",
      "tags": [
        "kneipe"
      ]
    },
    {
      "id": "man-024",
      "city": "manchester",
      "name": "The Goose",
      "address": "29 Bloom Street",
      "lat": 53.4774,
      "lng": -2.2373,
      "drink": "Pint of Lager",
      "par": 3,
      "type": "kneipe",
      "tags": [
        "kneipe",
        "real-ale"
      ]
    },
    {
      "id": "man-025",
      "city": "manchester",
      "name": "The Waldorf",
      "address": "12 Gore Street",
      "lat": 53.4796,
      "lng": -2.2339,
      "drink": "Pint of Lager",
      "par": 3,
      "type": "kneipe",
      "tags": [
        "kneipe"
      ]
    },
    {
      "id": "man-026",
      "city": "manchester",
      "name": "The Smithfield Market Tavern",
      "address": "33-37 Swan Street",
      "lat": 53.4854,
      "lng": -2.2344,
      "drink": "Pint of Lager",
      "par": 3,
      "type": "kneipe",
      "tags": [
        "kneipe",
        "real-ale"
      ]
    },
    {
      "id": "man-027",
      "city": "manchester",
      "name": "The Rose & Monkey Hotel",
      "address": "31 Swan Street",
      "lat": 53.4853,
      "lng": -2.2343,
      "drink": "Pint of Lager",
      "par": 3,
      "type": "kneipe",
      "tags": [
        "kneipe",
        "real-ale"
      ]
    },
    {
      "id": "man-028",
      "city": "manchester",
      "name": "The Northern",
      "address": "Oldham Street",
      "lat": 53.4835,
      "lng": -2.2347,
      "drink": "Pint of Lager",
      "par": 3,
      "type": "kneipe",
      "tags": [
        "kneipe",
        "real-ale"
      ]
    },
    {
      "id": "man-029",
      "city": "manchester",
      "name": "Grey Horse",
      "address": "80 Portland Street",
      "lat": 53.4779,
      "lng": -2.2398,
      "drink": "Pint of Lager",
      "par": 3,
      "type": "kneipe",
      "tags": [
        "kneipe",
        "real-ale"
      ]
    },
    {
      "id": "man-030",
      "city": "manchester",
      "name": "The Lost Dene",
      "address": "144 Deansgate",
      "lat": 53.4805,
      "lng": -2.2484,
      "drink": "Pint of Lager",
      "par": 3,
      "type": "kneipe",
      "tags": [
        "kneipe"
      ]
    },
    {
      "id": "man-031",
      "city": "manchester",
      "name": "Kings Arms",
      "address": "11 Bloom Street",
      "lat": 53.4841,
      "lng": -2.256,
      "drink": "Pint of Lager",
      "par": 3,
      "type": "kneipe",
      "tags": [
        "kneipe",
        "real-ale"
      ]
    },
    {
      "id": "man-032",
      "city": "manchester",
      "name": "Mr Thomas's Chop House",
      "address": "52 Cross Street",
      "lat": 53.4813,
      "lng": -2.2449,
      "drink": "Craft IPA Pint",
      "par": 3,
      "type": "craft",
      "tags": [
        "craft",
        "real-ale",
        "food"
      ]
    },
    {
      "id": "man-033",
      "city": "manchester",
      "name": "The Paramount",
      "address": "33-35 Oxford Street",
      "lat": 53.4765,
      "lng": -2.2425,
      "drink": "Pint of Lager",
      "par": 3,
      "type": "kneipe",
      "tags": [
        "kneipe",
        "real-ale",
        "food"
      ]
    },
    {
      "id": "man-034",
      "city": "manchester",
      "name": "The Bay Horse Tavern",
      "address": "35-37 Thomas Street",
      "lat": 53.4842,
      "lng": -2.2368,
      "drink": "Pint of Lager",
      "par": 3,
      "type": "kneipe",
      "tags": [
        "kneipe"
      ]
    },
    {
      "id": "man-035",
      "city": "manchester",
      "name": "Egerton Inn",
      "address": "Address unknown",
      "lat": 53.5147,
      "lng": -2.2433,
      "drink": "Pint of Lager",
      "par": 3,
      "type": "kneipe",
      "tags": [
        "kneipe"
      ]
    },
    {
      "id": "man-036",
      "city": "manchester",
      "name": "New Crown Inn",
      "address": "Address unknown",
      "lat": 53.5014,
      "lng": -2.1811,
      "drink": "Pint of Lager",
      "par": 3,
      "type": "kneipe",
      "tags": [
        "kneipe"
      ]
    },
    {
      "id": "man-037",
      "city": "manchester",
      "name": "Nelson Tavern",
      "address": "Address unknown",
      "lat": 53.4958,
      "lng": -2.1612,
      "drink": "Pint of Lager",
      "par": 3,
      "type": "kneipe",
      "tags": [
        "kneipe"
      ]
    },
    {
      "id": "man-038",
      "city": "manchester",
      "name": "The Moon Under Water",
      "address": "68-74 Deansgate",
      "lat": 53.4828,
      "lng": -2.2469,
      "drink": "Pint of Lager",
      "par": 3,
      "type": "kneipe",
      "tags": [
        "kneipe",
        "real-ale",
        "food"
      ]
    },
    {
      "id": "man-039",
      "city": "manchester",
      "name": "Grand Central",
      "address": "Address unknown",
      "lat": 53.4741,
      "lng": -2.2408,
      "drink": "Pint of Lager",
      "par": 3,
      "type": "kneipe",
      "tags": [
        "kneipe"
      ]
    },
    {
      "id": "man-040",
      "city": "manchester",
      "name": "The New Union",
      "address": "111 Princess Street",
      "lat": 53.4763,
      "lng": -2.2385,
      "drink": "Pint of Lager",
      "par": 3,
      "type": "kneipe",
      "tags": [
        "kneipe"
      ]
    },
    {
      "id": "man-041",
      "city": "manchester",
      "name": "The Church",
      "address": "37 Chorlton Street",
      "lat": 53.4777,
      "lng": -2.236,
      "drink": "Pint of Lager",
      "par": 3,
      "type": "kneipe",
      "tags": [
        "kneipe"
      ]
    },
    {
      "id": "man-042",
      "city": "manchester",
      "name": "Red Lion",
      "address": "279 Bolton Road",
      "lat": 53.499,
      "lng": -2.3055,
      "drink": "Pint of Lager",
      "par": 3,
      "type": "kneipe",
      "tags": [
        "kneipe"
      ]
    },
    {
      "id": "man-043",
      "city": "manchester",
      "name": "The Wellington Hotel",
      "address": "345 Bolton Road",
      "lat": 53.4998,
      "lng": -2.3073,
      "drink": "Pint of Lager",
      "par": 3,
      "type": "kneipe",
      "tags": [
        "kneipe"
      ]
    },
    {
      "id": "man-044",
      "city": "manchester",
      "name": "The Quadrant",
      "address": "Address unknown",
      "lat": 53.4531,
      "lng": -2.2868,
      "drink": "Pint of Lager",
      "par": 3,
      "type": "kneipe",
      "tags": [
        "kneipe"
      ]
    },
    {
      "id": "man-045",
      "city": "manchester",
      "name": "Waggon and Horses",
      "address": "367 Bolton Road",
      "lat": 53.5002,
      "lng": -2.3081,
      "drink": "Pint of Lager",
      "par": 3,
      "type": "kneipe",
      "tags": [
        "kneipe"
      ]
    },
    {
      "id": "man-046",
      "city": "manchester",
      "name": "The Friendship Inn",
      "address": "Address unknown",
      "lat": 53.4405,
      "lng": -2.2191,
      "drink": "Pint of Lager",
      "par": 3,
      "type": "kneipe",
      "tags": [
        "kneipe"
      ]
    },
    {
      "id": "man-047",
      "city": "manchester",
      "name": "The Broadway",
      "address": "Address unknown",
      "lat": 53.5166,
      "lng": -2.1687,
      "drink": "Pint of Lager",
      "par": 3,
      "type": "kneipe",
      "tags": [
        "kneipe"
      ]
    },
    {
      "id": "man-048",
      "city": "manchester",
      "name": "The Trafford",
      "address": "Address unknown",
      "lat": 53.4611,
      "lng": -2.2878,
      "drink": "Pint of Lager",
      "par": 3,
      "type": "kneipe",
      "tags": [
        "kneipe"
      ]
    },
    {
      "id": "man-049",
      "city": "manchester",
      "name": "Cask",
      "address": "29 Liverpool Road",
      "lat": 53.4759,
      "lng": -2.2524,
      "drink": "Pint of Lager",
      "par": 3,
      "type": "kneipe",
      "tags": [
        "kneipe",
        "real-ale"
      ]
    },
    {
      "id": "man-050",
      "city": "manchester",
      "name": "Micro Bar",
      "address": "Address unknown",
      "lat": 53.4838,
      "lng": -2.239,
      "drink": "Pint of Lager",
      "par": 3,
      "type": "kneipe",
      "tags": [
        "kneipe",
        "real-ale"
      ]
    },
    {
      "id": "man-051",
      "city": "manchester",
      "name": "Bar Fringe",
      "address": "8 Swan Street",
      "lat": 53.4851,
      "lng": -2.2333,
      "drink": "Pint of Lager",
      "par": 3,
      "type": "kneipe",
      "tags": [
        "kneipe",
        "real-ale"
      ]
    },
    {
      "id": "man-052",
      "city": "manchester",
      "name": "Blue Bell Inn",
      "address": "170 Barlow Road",
      "lat": 53.445,
      "lng": -2.1841,
      "drink": "Pint of Lager",
      "par": 3,
      "type": "kneipe",
      "tags": [
        "kneipe",
        "outdoor"
      ]
    },
    {
      "id": "man-053",
      "city": "manchester",
      "name": "The Bishop Blaize",
      "address": "Address unknown",
      "lat": 53.4612,
      "lng": -2.2892,
      "drink": "Craft IPA Pint",
      "par": 3,
      "type": "craft",
      "tags": [
        "craft",
        "regional"
      ]
    },
    {
      "id": "man-054",
      "city": "manchester",
      "name": "Gorse Hill",
      "address": "Address unknown",
      "lat": 53.4543,
      "lng": -2.299,
      "drink": "Pint of Lager",
      "par": 3,
      "type": "kneipe",
      "tags": [
        "kneipe"
      ]
    },
    {
      "id": "man-055",
      "city": "manchester",
      "name": "The Molly House",
      "address": "26 Richmond Street",
      "lat": 53.4773,
      "lng": -2.2371,
      "drink": "Craft IPA Pint",
      "par": 3,
      "type": "craft",
      "tags": [
        "craft",
        "real-ale",
        "tapas",
        "food"
      ]
    },
    {
      "id": "man-056",
      "city": "manchester",
      "name": "New York New York",
      "address": "94 Bloom Street",
      "lat": 53.4769,
      "lng": -2.2385,
      "drink": "Pint of Lager",
      "par": 3,
      "type": "kneipe",
      "tags": [
        "kneipe"
      ]
    },
    {
      "id": "man-057",
      "city": "manchester",
      "name": "The Eagle",
      "address": "15 Bloom Street",
      "lat": 53.4777,
      "lng": -2.2369,
      "drink": "Pint of Lager",
      "par": 3,
      "type": "kneipe",
      "tags": [
        "kneipe"
      ]
    },
    {
      "id": "man-058",
      "city": "manchester",
      "name": "EVA",
      "address": "27 Sackville Street",
      "lat": 53.4773,
      "lng": -2.2375,
      "drink": "Pint of Lager",
      "par": 3,
      "type": "kneipe",
      "tags": [
        "kneipe"
      ]
    },
    {
      "id": "man-059",
      "city": "manchester",
      "name": "Port Street Beer House",
      "address": "39-41 Port Street",
      "lat": 53.4821,
      "lng": -2.2319,
      "drink": "Pint of Lager",
      "par": 3,
      "type": "kneipe",
      "tags": [
        "kneipe",
        "outdoor",
        "real-ale"
      ]
    },
    {
      "id": "man-060",
      "city": "manchester",
      "name": "O'Shea's",
      "address": "80 Princess Street",
      "lat": 53.4755,
      "lng": -2.2381,
      "drink": "Pint of Guinness",
      "par": 4,
      "type": "irish",
      "tags": [
        "irish"
      ]
    },
    {
      "id": "man-061",
      "city": "manchester",
      "name": "The New Oxford",
      "address": "11 Bexley Square",
      "lat": 53.4837,
      "lng": -2.2593,
      "drink": "Pint of Lager",
      "par": 3,
      "type": "kneipe",
      "tags": [
        "kneipe",
        "real-ale"
      ]
    },
    {
      "id": "man-062",
      "city": "manchester",
      "name": "Gas Lamp",
      "address": "50A Bridge Street",
      "lat": 53.481,
      "lng": -2.2495,
      "drink": "Pint of Lager",
      "par": 3,
      "type": "kneipe",
      "tags": [
        "kneipe",
        "real-ale"
      ]
    },
    {
      "id": "man-063",
      "city": "manchester",
      "name": "Castle Hotel",
      "address": "66 Oldham Street",
      "lat": 53.4837,
      "lng": -2.2338,
      "drink": "Pint of Lager",
      "par": 3,
      "type": "kneipe",
      "tags": [
        "kneipe",
        "real-ale"
      ]
    },
    {
      "id": "man-064",
      "city": "manchester",
      "name": "The Grove",
      "address": "Address unknown",
      "lat": 53.4622,
      "lng": -2.2307,
      "drink": "Pint of Lager",
      "par": 3,
      "type": "kneipe",
      "tags": [
        "kneipe"
      ]
    },
    {
      "id": "man-065",
      "city": "manchester",
      "name": "The Great Central",
      "address": "Wilmslow Road",
      "lat": 53.441,
      "lng": -2.2194,
      "drink": "Pint of Lager",
      "par": 3,
      "type": "kneipe",
      "tags": [
        "kneipe",
        "outdoor",
        "real-ale",
        "food"
      ]
    },
    {
      "id": "man-066",
      "city": "manchester",
      "name": "Duffy's Bar",
      "address": "Barlow Moor Road",
      "lat": 53.4413,
      "lng": -2.2759,
      "drink": "Pint of Lager",
      "par": 3,
      "type": "kneipe",
      "tags": [
        "kneipe",
        "real-ale"
      ]
    },
    {
      "id": "man-067",
      "city": "manchester",
      "name": "Dulcimer",
      "address": "567 Wilbraham Road",
      "lat": 53.4424,
      "lng": -2.2765,
      "drink": "Pint of Lager",
      "par": 3,
      "type": "kneipe",
      "tags": [
        "kneipe",
        "real-ale"
      ]
    },
    {
      "id": "man-068",
      "city": "manchester",
      "name": "Marble Beer House",
      "address": "Address unknown",
      "lat": 53.4454,
      "lng": -2.2785,
      "drink": "Pint of Lager",
      "par": 3,
      "type": "kneipe",
      "tags": [
        "kneipe",
        "real-ale"
      ]
    },
    {
      "id": "man-069",
      "city": "manchester",
      "name": "Nip and Tipple",
      "address": "Address unknown",
      "lat": 53.4518,
      "lng": -2.2694,
      "drink": "Pint of Lager",
      "par": 3,
      "type": "kneipe",
      "tags": [
        "kneipe",
        "real-ale"
      ]
    },
    {
      "id": "man-070",
      "city": "manchester",
      "name": "Suburban Green",
      "address": "60 Beech Road",
      "lat": 53.4386,
      "lng": -2.2803,
      "drink": "Pint of Lager",
      "par": 3,
      "type": "kneipe",
      "tags": [
        "kneipe",
        "real-ale",
        "food"
      ]
    },
    {
      "id": "man-071",
      "city": "manchester",
      "name": "The J. P. Joule",
      "address": "2a Northenden Road",
      "lat": 53.4241,
      "lng": -2.3175,
      "drink": "Pint of Lager",
      "par": 3,
      "type": "kneipe",
      "tags": [
        "kneipe",
        "outdoor",
        "real-ale",
        "food"
      ]
    },
    {
      "id": "man-072",
      "city": "manchester",
      "name": "The Steamhouse",
      "address": "Address unknown",
      "lat": 53.4245,
      "lng": -2.318,
      "drink": "Pint of Lager",
      "par": 3,
      "type": "kneipe",
      "tags": [
        "kneipe",
        "outdoor",
        "real-ale"
      ]
    },
    {
      "id": "man-073",
      "city": "manchester",
      "name": "Mary D's",
      "address": "Address unknown",
      "lat": 53.4809,
      "lng": -2.1973,
      "drink": "Pint of Lager",
      "par": 3,
      "type": "kneipe",
      "tags": [
        "kneipe"
      ]
    },
    {
      "id": "man-074",
      "city": "manchester",
      "name": "The Courtyard",
      "address": "Chester Street",
      "lat": 53.4717,
      "lng": -2.2423,
      "drink": "Pint of Lager",
      "par": 3,
      "type": "kneipe",
      "tags": [
        "kneipe"
      ]
    },
    {
      "id": "man-075",
      "city": "manchester",
      "name": "The Bricklayers Arms",
      "address": "Address unknown",
      "lat": 53.5106,
      "lng": -2.1636,
      "drink": "Pint of Lager",
      "par": 3,
      "type": "kneipe",
      "tags": [
        "kneipe"
      ]
    },
    {
      "id": "man-076",
      "city": "manchester",
      "name": "BrewDog Manchester",
      "address": "35 Peter Street",
      "lat": 53.4781,
      "lng": -2.2472,
      "drink": "Craft IPA Pint",
      "par": 3,
      "type": "craft",
      "tags": [
        "craft",
        "outdoor",
        "food"
      ]
    },
    {
      "id": "man-077",
      "city": "manchester",
      "name": "Duke of York",
      "address": "Address unknown",
      "lat": 53.5062,
      "lng": -2.2483,
      "drink": "Pint of Lager",
      "par": 3,
      "type": "kneipe",
      "tags": [
        "kneipe"
      ]
    },
    {
      "id": "man-078",
      "city": "manchester",
      "name": "The Temple",
      "address": "100 Bridgewater Street",
      "lat": 53.4756,
      "lng": -2.2423,
      "drink": "Pint of Lager",
      "par": 3,
      "type": "kneipe",
      "tags": [
        "kneipe",
        "outdoor"
      ]
    },
    {
      "id": "man-079",
      "city": "manchester",
      "name": "The Tollgate",
      "address": "Seymour Grove",
      "lat": 53.462,
      "lng": -2.2761,
      "drink": "Pint of Lager",
      "par": 3,
      "type": "kneipe",
      "tags": [
        "kneipe"
      ]
    },
    {
      "id": "man-080",
      "city": "manchester",
      "name": "The Shakespeare",
      "address": "16 Fountain Street",
      "lat": 53.4817,
      "lng": -2.24,
      "drink": "Pint of Lager",
      "par": 3,
      "type": "kneipe",
      "tags": [
        "kneipe"
      ]
    },
    {
      "id": "man-081",
      "city": "manchester",
      "name": "The Old Pint Pot",
      "address": "Adelphi Street",
      "lat": 53.4839,
      "lng": -2.2656,
      "drink": "Pint of Lager",
      "par": 3,
      "type": "kneipe",
      "tags": [
        "kneipe",
        "food"
      ]
    },
    {
      "id": "man-082",
      "city": "manchester",
      "name": "The Railway",
      "address": "Address unknown",
      "lat": 53.4282,
      "lng": -2.2408,
      "drink": "Pint of Lager",
      "par": 3,
      "type": "kneipe",
      "tags": [
        "kneipe"
      ]
    },
    {
      "id": "man-083",
      "city": "manchester",
      "name": "The Metropolitan",
      "address": "2 Lapwing Lane",
      "lat": 53.4278,
      "lng": -2.2411,
      "drink": "Pint of Lager",
      "par": 3,
      "type": "kneipe",
      "tags": [
        "kneipe",
        "outdoor",
        "food"
      ]
    },
    {
      "id": "man-084",
      "city": "manchester",
      "name": "Gullivers",
      "address": "109 Oldham Street",
      "lat": 53.4839,
      "lng": -2.234,
      "drink": "Pint of Lager",
      "par": 3,
      "type": "kneipe",
      "tags": [
        "kneipe"
      ]
    },
    {
      "id": "man-085",
      "city": "manchester",
      "name": "Pig on the Wall",
      "address": "Address unknown",
      "lat": 53.4873,
      "lng": -2.1547,
      "drink": "Pint of Lager",
      "par": 3,
      "type": "kneipe",
      "tags": [
        "kneipe"
      ]
    },
    {
      "id": "man-086",
      "city": "manchester",
      "name": "Eagle Inn",
      "address": "19 Collier Street",
      "lat": 53.4873,
      "lng": -2.2512,
      "drink": "Pint of Lager",
      "par": 3,
      "type": "kneipe",
      "tags": [
        "kneipe"
      ]
    },
    {
      "id": "man-087",
      "city": "manchester",
      "name": "Electrik Bar",
      "address": "559a Wilbraham Road",
      "lat": 53.4424,
      "lng": -2.2761,
      "drink": "Pint of Lager",
      "par": 3,
      "type": "kneipe",
      "tags": [
        "kneipe"
      ]
    },
    {
      "id": "man-088",
      "city": "manchester",
      "name": "Grey Horse",
      "address": "99 Broadstone Road",
      "lat": 53.4352,
      "lng": -2.1658,
      "drink": "Pint of Lager",
      "par": 3,
      "type": "kneipe",
      "tags": [
        "kneipe"
      ]
    },
    {
      "id": "man-089",
      "city": "manchester",
      "name": "The Thompsons Arms",
      "address": "23 Sackville Street",
      "lat": 53.4777,
      "lng": -2.238,
      "drink": "Pint of Lager",
      "par": 3,
      "type": "kneipe",
      "tags": [
        "kneipe"
      ]
    },
    {
      "id": "man-090",
      "city": "manchester",
      "name": "The Lower Turk's Head",
      "address": "34-36 Shudehill",
      "lat": 53.4848,
      "lng": -2.2383,
      "drink": "Pint of Lager",
      "par": 3,
      "type": "kneipe",
      "tags": [
        "kneipe",
        "outdoor"
      ]
    },
    {
      "id": "man-091",
      "city": "manchester",
      "name": "Tib Street Tavern",
      "address": "74 Tib Street",
      "lat": 53.4838,
      "lng": -2.2346,
      "drink": "Pint of Lager",
      "par": 3,
      "type": "kneipe",
      "tags": [
        "kneipe"
      ]
    },
    {
      "id": "man-092",
      "city": "manchester",
      "name": "Crown and Anchor",
      "address": "4-8 Cateaton Street",
      "lat": 53.4845,
      "lng": -2.2445,
      "drink": "Pint of Lager",
      "par": 3,
      "type": "kneipe",
      "tags": [
        "kneipe",
        "real-ale"
      ]
    },
    {
      "id": "man-093",
      "city": "manchester",
      "name": "The Mitre",
      "address": "1-3 Cathedral Gates",
      "lat": 53.4846,
      "lng": -2.2443,
      "drink": "Pint of Lager",
      "par": 3,
      "type": "kneipe",
      "tags": [
        "kneipe",
        "outdoor"
      ]
    },
    {
      "id": "man-094",
      "city": "manchester",
      "name": "The City Arms",
      "address": "46-48 Kennedy Street",
      "lat": 53.4793,
      "lng": -2.2429,
      "drink": "Pint of Lager",
      "par": 3,
      "type": "kneipe",
      "tags": [
        "kneipe"
      ]
    },
    {
      "id": "man-095",
      "city": "manchester",
      "name": "The Vine",
      "address": "42-44 Kennedy Street",
      "lat": 53.4794,
      "lng": -2.243,
      "drink": "Pint of Lager",
      "par": 3,
      "type": "kneipe",
      "tags": [
        "kneipe"
      ]
    },
    {
      "id": "man-096",
      "city": "manchester",
      "name": "Piccadilly Central",
      "address": "38 London Road",
      "lat": 53.4774,
      "lng": -2.2322,
      "drink": "Pint of Lager",
      "par": 3,
      "type": "kneipe",
      "tags": [
        "kneipe"
      ]
    },
    {
      "id": "man-097",
      "city": "manchester",
      "name": "The Seven Oaks",
      "address": "5 Nicholas Street",
      "lat": 53.4789,
      "lng": -2.2409,
      "drink": "Pint of Lager",
      "par": 3,
      "type": "kneipe",
      "tags": [
        "kneipe"
      ]
    },
    {
      "id": "man-098",
      "city": "manchester",
      "name": "The Bank",
      "address": "57 Mosley Street",
      "lat": 53.4798,
      "lng": -2.2406,
      "drink": "Pint of Lager",
      "par": 3,
      "type": "kneipe",
      "tags": [
        "kneipe"
      ]
    },
    {
      "id": "man-099",
      "city": "manchester",
      "name": "Star Inn",
      "address": "Address unknown",
      "lat": 53.5069,
      "lng": -2.264,
      "drink": "Pint of Lager",
      "par": 3,
      "type": "kneipe",
      "tags": [
        "kneipe"
      ]
    },
    {
      "id": "man-100",
      "city": "manchester",
      "name": "The Unicorn",
      "address": "26 Church Street",
      "lat": 53.4829,
      "lng": -2.2376,
      "drink": "Pint of Lager",
      "par": 3,
      "type": "kneipe",
      "tags": [
        "kneipe"
      ]
    },
    {
      "id": "man-101",
      "city": "manchester",
      "name": "The Deansgate",
      "address": "321 Deansgate",
      "lat": 53.4751,
      "lng": -2.2512,
      "drink": "Pint of Lager",
      "par": 3,
      "type": "kneipe",
      "tags": [
        "kneipe",
        "real-ale"
      ]
    },
    {
      "id": "man-102",
      "city": "manchester",
      "name": "Blackjack Brewtap",
      "address": "Irk Street",
      "lat": 53.4901,
      "lng": -2.2352,
      "drink": "Craft IPA Pint",
      "par": 3,
      "type": "craft",
      "tags": [
        "craft",
        "microbrewery"
      ]
    },
    {
      "id": "man-103",
      "city": "manchester",
      "name": "Fred's Ale House, Coffee Shop and Art Gallery",
      "address": "843 Stockport Road",
      "lat": 53.4443,
      "lng": -2.1914,
      "drink": "Pint of Ale",
      "par": 4,
      "type": "brauhaus",
      "tags": [
        "brauhaus"
      ]
    },
    {
      "id": "man-104",
      "city": "manchester",
      "name": "Piccadilly Tap",
      "address": "Piccadilly Station Approach",
      "lat": 53.4785,
      "lng": -2.2318,
      "drink": "Craft IPA Pint",
      "par": 3,
      "type": "craft",
      "tags": [
        "craft",
        "outdoor",
        "real-ale"
      ]
    },
    {
      "id": "man-105",
      "city": "manchester",
      "name": "Union Inn",
      "address": "Broadstone Road",
      "lat": 53.4354,
      "lng": -2.1654,
      "drink": "Pint of Lager",
      "par": 3,
      "type": "kneipe",
      "tags": [
        "kneipe"
      ]
    },
    {
      "id": "man-106",
      "city": "manchester",
      "name": "The Black Lion Pub",
      "address": "65 Chapel Street",
      "lat": 53.4847,
      "lng": -2.2494,
      "drink": "Pint of Lager",
      "par": 3,
      "type": "kneipe",
      "tags": [
        "kneipe",
        "outdoor"
      ]
    },
    {
      "id": "man-107",
      "city": "manchester",
      "name": "Circus Tavern",
      "address": "86 Portland Street",
      "lat": 53.4778,
      "lng": -2.24,
      "drink": "Pint of Lager",
      "par": 3,
      "type": "kneipe",
      "tags": [
        "kneipe",
        "real-ale"
      ]
    },
    {
      "id": "man-108",
      "city": "manchester",
      "name": "M19",
      "address": "847-849 Stockport Road",
      "lat": 53.4441,
      "lng": -2.1914,
      "drink": "Pint of Lager",
      "par": 3,
      "type": "kneipe",
      "tags": [
        "kneipe"
      ]
    },
    {
      "id": "man-109",
      "city": "manchester",
      "name": "Union Inn",
      "address": "845 Stockport Road",
      "lat": 53.4442,
      "lng": -2.1914,
      "drink": "Pint of Lager",
      "par": 3,
      "type": "kneipe",
      "tags": [
        "kneipe"
      ]
    },
    {
      "id": "man-110",
      "city": "manchester",
      "name": "Smedley Hotel",
      "address": "Address unknown",
      "lat": 53.5062,
      "lng": -2.2256,
      "drink": "Pint of Lager",
      "par": 3,
      "type": "kneipe",
      "tags": [
        "kneipe"
      ]
    },
    {
      "id": "man-111",
      "city": "manchester",
      "name": "The Palatine",
      "address": "47 Edward Street",
      "lat": 53.4929,
      "lng": -2.2537,
      "drink": "Pint of Lager",
      "par": 3,
      "type": "kneipe",
      "tags": [
        "kneipe"
      ]
    },
    {
      "id": "man-112",
      "city": "manchester",
      "name": "Klondyke Club",
      "address": "1 Burnage Range",
      "lat": 53.4436,
      "lng": -2.1957,
      "drink": "Craft Beer",
      "par": 3,
      "type": "szene",
      "tags": [
        "szene",
        "outdoor"
      ]
    },
    {
      "id": "man-113",
      "city": "manchester",
      "name": "The Mill",
      "address": "Piccadilly Station Approach",
      "lat": 53.4779,
      "lng": -2.231,
      "drink": "Pint of Lager",
      "par": 3,
      "type": "kneipe",
      "tags": [
        "kneipe"
      ]
    },
    {
      "id": "man-114",
      "city": "manchester",
      "name": "The Bridge",
      "address": "58 Bridge Street",
      "lat": 53.481,
      "lng": -2.2493,
      "drink": "Pint of Lager",
      "par": 3,
      "type": "kneipe",
      "tags": [
        "kneipe"
      ]
    },
    {
      "id": "man-115",
      "city": "manchester",
      "name": "Mulligans",
      "address": "12 Southgate",
      "lat": 53.4812,
      "lng": -2.2487,
      "drink": "Pint of Lager",
      "par": 3,
      "type": "kneipe",
      "tags": [
        "kneipe"
      ]
    },
    {
      "id": "man-116",
      "city": "manchester",
      "name": "Gas Works",
      "address": "Address unknown",
      "lat": 53.4734,
      "lng": -2.2462,
      "drink": "Pint of Lager",
      "par": 3,
      "type": "kneipe",
      "tags": [
        "kneipe",
        "real-ale"
      ]
    },
    {
      "id": "man-117",
      "city": "manchester",
      "name": "Rovers Return",
      "address": "89-91 Chapel Street",
      "lat": 53.4845,
      "lng": -2.2505,
      "drink": "Pint of Lager",
      "par": 3,
      "type": "kneipe",
      "tags": [
        "kneipe"
      ]
    },
    {
      "id": "man-118",
      "city": "manchester",
      "name": "Alphabet Brewing Company",
      "address": "99 North Western Street",
      "lat": 53.4752,
      "lng": -2.2222,
      "drink": "Pint of Ale",
      "par": 4,
      "type": "brauhaus",
      "tags": [
        "brauhaus",
        "microbrewery"
      ]
    },
    {
      "id": "man-119",
      "city": "manchester",
      "name": "The Head of Steam",
      "address": "16 Newton Street",
      "lat": 53.4812,
      "lng": -2.2334,
      "drink": "Craft Beer",
      "par": 3,
      "type": "cocktailbar",
      "tags": [
        "cocktailbar",
        "japanese",
        "fusion",
        "cocktails"
      ]
    },
    {
      "id": "man-120",
      "city": "manchester",
      "name": "Three Legs of Man",
      "address": "Address unknown",
      "lat": 53.4655,
      "lng": -2.2594,
      "drink": "Pint of Lager",
      "par": 3,
      "type": "kneipe",
      "tags": [
        "kneipe"
      ]
    },
    {
      "id": "man-121",
      "city": "manchester",
      "name": "Pi",
      "address": "99 Manchester Road",
      "lat": 53.4468,
      "lng": -2.2777,
      "drink": "Pint of Lager",
      "par": 3,
      "type": "kneipe",
      "tags": [
        "kneipe",
        "real-ale",
        "chinese",
        "pie",
        "food"
      ]
    },
    {
      "id": "man-122",
      "city": "manchester",
      "name": "High Street Tavern",
      "address": "5 Nicholas Croft",
      "lat": 53.4845,
      "lng": -2.2384,
      "drink": "Pint of Lager",
      "par": 3,
      "type": "kneipe",
      "tags": [
        "kneipe",
        "outdoor"
      ]
    },
    {
      "id": "man-123",
      "city": "manchester",
      "name": "Brewski",
      "address": "Wilbraham Road",
      "lat": 53.4424,
      "lng": -2.2738,
      "drink": "Pint of Lager",
      "par": 3,
      "type": "kneipe",
      "tags": [
        "kneipe"
      ]
    },
    {
      "id": "man-124",
      "city": "manchester",
      "name": "Chorlton Tap",
      "address": "Wilbraham Road",
      "lat": 53.4424,
      "lng": -2.2736,
      "drink": "Craft IPA Pint",
      "par": 3,
      "type": "craft",
      "tags": [
        "craft"
      ]
    },
    {
      "id": "man-125",
      "city": "manchester",
      "name": "The Beer House Bar & Kitchen",
      "address": "Long Millgate",
      "lat": 53.4877,
      "lng": -2.2429,
      "drink": "Pint of Lager",
      "par": 3,
      "type": "kneipe",
      "tags": [
        "kneipe",
        "outdoor",
        "food"
      ]
    },
    {
      "id": "man-126",
      "city": "manchester",
      "name": "Seven Bro7hers Beerhouse",
      "address": "39 Blossom Street",
      "lat": 53.4845,
      "lng": -2.2294,
      "drink": "Pint of Lager",
      "par": 3,
      "type": "kneipe",
      "tags": [
        "kneipe",
        "outdoor"
      ]
    },
    {
      "id": "man-127",
      "city": "manchester",
      "name": "Ladybarn Social Club",
      "address": "Address unknown",
      "lat": 53.4359,
      "lng": -2.212,
      "drink": "Craft Beer",
      "par": 3,
      "type": "szene",
      "tags": [
        "szene"
      ]
    },
    {
      "id": "man-128",
      "city": "manchester",
      "name": "Via",
      "address": "28-30 Canal Street",
      "lat": 53.4772,
      "lng": -2.2368,
      "drink": "Pint of Lager",
      "par": 3,
      "type": "kneipe",
      "tags": [
        "kneipe"
      ]
    },
    {
      "id": "man-129",
      "city": "manchester",
      "name": "Northern Monkey",
      "address": "8 Dantzic Street",
      "lat": 53.4849,
      "lng": -2.2399,
      "drink": "Pint of Lager",
      "par": 3,
      "type": "kneipe",
      "tags": [
        "kneipe"
      ]
    },
    {
      "id": "man-130",
      "city": "manchester",
      "name": "Strange brew",
      "address": "370 Barlow Moor Road",
      "lat": 53.4382,
      "lng": -2.2743,
      "drink": "Pint of Lager",
      "par": 3,
      "type": "kneipe",
      "tags": [
        "kneipe"
      ]
    },
    {
      "id": "man-131",
      "city": "manchester",
      "name": "The Milton Club",
      "address": "244 Deansgate",
      "lat": 53.4779,
      "lng": -2.25,
      "drink": "Craft Beer",
      "par": 3,
      "type": "szene",
      "tags": [
        "szene"
      ]
    },
    {
      "id": "man-132",
      "city": "manchester",
      "name": "The Rat & Pigeon",
      "address": "33 Back Piccadilly",
      "lat": 53.4813,
      "lng": -2.2347,
      "drink": "Pint of Lager",
      "par": 3,
      "type": "kneipe",
      "tags": [
        "kneipe"
      ]
    },
    {
      "id": "man-133",
      "city": "manchester",
      "name": "Wetherspoons",
      "address": "47 Piccadilly",
      "lat": 53.4811,
      "lng": -2.2352,
      "drink": "Pint of Lager",
      "par": 3,
      "type": "kneipe",
      "tags": [
        "kneipe"
      ]
    },
    {
      "id": "man-134",
      "city": "manchester",
      "name": "Founder's Hall",
      "address": "Address unknown",
      "lat": 53.4798,
      "lng": -2.2456,
      "drink": "Pint of Lager",
      "par": 3,
      "type": "kneipe",
      "tags": [
        "kneipe",
        "outdoor"
      ]
    },
    {
      "id": "man-135",
      "city": "manchester",
      "name": "Piccadilly Tavern",
      "address": "71-73 Piccadilly",
      "lat": 53.4807,
      "lng": -2.2341,
      "drink": "Pint of Lager",
      "par": 3,
      "type": "kneipe",
      "tags": [
        "kneipe"
      ]
    },
    {
      "id": "man-136",
      "city": "manchester",
      "name": "The Star & Garter",
      "address": "18-20 Fairfield Street",
      "lat": 53.476,
      "lng": -2.2275,
      "drink": "Pint of Lager",
      "par": 3,
      "type": "kneipe",
      "tags": [
        "kneipe"
      ]
    },
    {
      "id": "man-137",
      "city": "manchester",
      "name": "Reasons to be Cheerful",
      "address": "228 Fog Lane",
      "lat": 53.4212,
      "lng": -2.2173,
      "drink": "Pint of Lager",
      "par": 3,
      "type": "kneipe",
      "tags": [
        "kneipe"
      ]
    },
    {
      "id": "man-138",
      "city": "manchester",
      "name": "The Talleyrand",
      "address": "1030 Stockport Road",
      "lat": 53.4412,
      "lng": -2.1893,
      "drink": "Pint of Lager",
      "par": 3,
      "type": "kneipe",
      "tags": [
        "kneipe"
      ]
    },
    {
      "id": "man-139",
      "city": "manchester",
      "name": "Hetherington's Cafe Bar",
      "address": "8 Pollard Street",
      "lat": 53.4797,
      "lng": -2.2213,
      "drink": "Pint of Lager",
      "par": 3,
      "type": "kneipe",
      "tags": [
        "kneipe"
      ]
    },
    {
      "id": "man-140",
      "city": "manchester",
      "name": "Cask",
      "address": "2 New Union Street",
      "lat": 53.4838,
      "lng": -2.2254,
      "drink": "Pint of Lager",
      "par": 3,
      "type": "kneipe",
      "tags": [
        "kneipe",
        "outdoor"
      ]
    },
    {
      "id": "man-141",
      "city": "manchester",
      "name": "The Beer Studio",
      "address": "256 Wilmslow Road",
      "lat": 53.443,
      "lng": -2.2187,
      "drink": "Pint of Lager",
      "par": 3,
      "type": "kneipe",
      "tags": [
        "kneipe"
      ]
    },
    {
      "id": "man-142",
      "city": "manchester",
      "name": "Seven Bro7hers Media City",
      "address": "Green",
      "lat": 53.4728,
      "lng": -2.2968,
      "drink": "Pint of Lager",
      "par": 3,
      "type": "kneipe",
      "tags": [
        "kneipe",
        "outdoor",
        "burger",
        "food"
      ]
    },
    {
      "id": "man-143",
      "city": "manchester",
      "name": "Overdraught",
      "address": "855 Stockport Road",
      "lat": 53.444,
      "lng": -2.1914,
      "drink": "Pint of Lager",
      "par": 3,
      "type": "kneipe",
      "tags": [
        "kneipe"
      ]
    },
    {
      "id": "man-144",
      "city": "manchester",
      "name": "Town Hall Tavern",
      "address": "20 Tib Lane",
      "lat": 53.4804,
      "lng": -2.2442,
      "drink": "Pint of Lager",
      "par": 3,
      "type": "kneipe",
      "tags": [
        "kneipe"
      ]
    },
    {
      "id": "man-145",
      "city": "manchester",
      "name": "The Waterhouse",
      "address": "67-71 Princess Street",
      "lat": 53.4792,
      "lng": -2.243,
      "drink": "Pint of Lager",
      "par": 3,
      "type": "kneipe",
      "tags": [
        "kneipe"
      ]
    },
    {
      "id": "man-146",
      "city": "manchester",
      "name": "The Ape and Apple",
      "address": "28-30 John Dalton Street",
      "lat": 53.4803,
      "lng": -2.2463,
      "drink": "Pint of Lager",
      "par": 3,
      "type": "kneipe",
      "tags": [
        "kneipe"
      ]
    },
    {
      "id": "man-147",
      "city": "manchester",
      "name": "The Victoria",
      "address": "Address unknown",
      "lat": 53.4348,
      "lng": -2.2278,
      "drink": "Pint of Lager",
      "par": 3,
      "type": "kneipe",
      "tags": [
        "kneipe"
      ]
    },
    {
      "id": "man-148",
      "city": "manchester",
      "name": "The Lass O'Gowrie",
      "address": "36 Charles Street",
      "lat": 53.4741,
      "lng": -2.2378,
      "drink": "Pint of Guinness",
      "par": 4,
      "type": "irish",
      "tags": [
        "irish",
        "real-ale"
      ]
    },
    {
      "id": "man-149",
      "city": "manchester",
      "name": "English Lounge",
      "address": "64-66 High Street",
      "lat": 53.4839,
      "lng": -2.2385,
      "drink": "Craft Beer",
      "par": 3,
      "type": "cocktailbar",
      "tags": [
        "cocktailbar"
      ]
    },
    {
      "id": "man-150",
      "city": "manchester",
      "name": "Derby Brewery Arms",
      "address": "95 Cheetham Hill Road",
      "lat": 53.493,
      "lng": -2.2402,
      "drink": "Pint of Ale",
      "par": 4,
      "type": "brauhaus",
      "tags": [
        "brauhaus"
      ]
    },
    {
      "id": "man-151",
      "city": "manchester",
      "name": "Northern Bar",
      "address": "Nobel Way",
      "lat": 53.4733,
      "lng": -2.2382,
      "drink": "Pint of Lager",
      "par": 3,
      "type": "kneipe",
      "tags": [
        "kneipe",
        "asian",
        "food"
      ]
    },
    {
      "id": "man-152",
      "city": "manchester",
      "name": "The Seven Stars",
      "address": "27 Withy Grove",
      "lat": 53.4851,
      "lng": -2.2402,
      "drink": "Pint of Lager",
      "par": 3,
      "type": "kneipe",
      "tags": [
        "kneipe",
        "real-ale",
        "food"
      ]
    },
    {
      "id": "man-153",
      "city": "manchester",
      "name": "Trof",
      "address": "8 Thomas Street",
      "lat": 53.4848,
      "lng": -2.238,
      "drink": "Pint of Lager",
      "par": 3,
      "type": "kneipe",
      "tags": [
        "kneipe",
        "food"
      ]
    },
    {
      "id": "man-154",
      "city": "manchester",
      "name": "The Hare & Hounds",
      "address": "46 Shudehill",
      "lat": 53.4851,
      "lng": -2.2379,
      "drink": "Pint of Lager",
      "par": 3,
      "type": "kneipe",
      "tags": [
        "kneipe"
      ]
    },
    {
      "id": "man-155",
      "city": "manchester",
      "name": "The Old Abbey Taphouse",
      "address": "Guildhall Close",
      "district": "hulme",
      "lat": 53.4622,
      "lng": -2.2374,
      "drink": "Craft IPA Pint",
      "par": 3,
      "type": "craft",
      "tags": [
        "craft"
      ]
    },
    {
      "id": "man-156",
      "city": "manchester",
      "name": "The Angel",
      "address": "6 Angel Street",
      "lat": 53.4872,
      "lng": -2.2353,
      "drink": "Pint of Lager",
      "par": 3,
      "type": "kneipe",
      "tags": [
        "kneipe",
        "real-ale"
      ]
    },
    {
      "id": "man-157",
      "city": "manchester",
      "name": "North Westward Ho",
      "address": "19 Chapel Walks",
      "lat": 53.4817,
      "lng": -2.2433,
      "drink": "Pint of Lager",
      "par": 3,
      "type": "kneipe",
      "tags": [
        "kneipe"
      ]
    },
    {
      "id": "man-158",
      "city": "manchester",
      "name": "Grove Inn",
      "address": "652 Ashton New Road",
      "district": "clayton",
      "lat": 53.4831,
      "lng": -2.1841,
      "drink": "Pint of Lager",
      "par": 3,
      "type": "kneipe",
      "tags": [
        "kneipe"
      ]
    },
    {
      "id": "man-159",
      "city": "manchester",
      "name": "The Millstone",
      "address": "65-67 Thomas Street",
      "lat": 53.4836,
      "lng": -2.2358,
      "drink": "Pint of Lager",
      "par": 3,
      "type": "kneipe",
      "tags": [
        "kneipe",
        "real-ale"
      ]
    },
    {
      "id": "man-160",
      "city": "manchester",
      "name": "Walkabout",
      "address": "27 Withy Grove",
      "lat": 53.4852,
      "lng": -2.2402,
      "drink": "Pint of Lager",
      "par": 3,
      "type": "kneipe",
      "tags": [
        "kneipe"
      ]
    },
    {
      "id": "man-161",
      "city": "manchester",
      "name": "Abel Heywood",
      "address": "34 Turner Street",
      "lat": 53.4835,
      "lng": -2.2372,
      "drink": "Pint of Lager",
      "par": 3,
      "type": "kneipe",
      "tags": [
        "kneipe",
        "outdoor",
        "food"
      ]
    },
    {
      "id": "man-162",
      "city": "manchester",
      "name": "The Wheatsheaf",
      "address": "30 Oak Street",
      "lat": 53.4844,
      "lng": -2.2348,
      "drink": "Pint of Lager",
      "par": 3,
      "type": "kneipe",
      "tags": [
        "kneipe",
        "real-ale"
      ]
    },
    {
      "id": "man-163",
      "city": "manchester",
      "name": "Edinburgh Castle",
      "address": "17 Blossom Street",
      "lat": 53.4842,
      "lng": -2.2299,
      "drink": "Pint of Lager",
      "par": 3,
      "type": "kneipe",
      "tags": [
        "kneipe"
      ]
    },
    {
      "id": "man-164",
      "city": "manchester",
      "name": "Victoria Tap",
      "address": "2 Todd Street",
      "lat": 53.4867,
      "lng": -2.2417,
      "drink": "Craft IPA Pint",
      "par": 3,
      "type": "craft",
      "tags": [
        "craft",
        "outdoor"
      ]
    },
    {
      "id": "man-165",
      "city": "manchester",
      "name": "The Farmers Arms",
      "address": "254 Burnage Lane",
      "district": "burnage",
      "lat": 53.4306,
      "lng": -2.2012,
      "drink": "Pint of Lager",
      "par": 3,
      "type": "kneipe",
      "tags": [
        "kneipe"
      ]
    },
    {
      "id": "man-166",
      "city": "manchester",
      "name": "Church Inn",
      "address": "Address unknown",
      "lat": 53.5004,
      "lng": -2.1769,
      "drink": "Pint of Lager",
      "par": 3,
      "type": "kneipe",
      "tags": [
        "kneipe"
      ]
    },
    {
      "id": "man-167",
      "city": "manchester",
      "name": "The White Lion",
      "address": "Address unknown",
      "lat": 53.5012,
      "lng": -2.1814,
      "drink": "Pint of Lager",
      "par": 3,
      "type": "kneipe",
      "tags": [
        "kneipe"
      ]
    },
    {
      "id": "man-168",
      "city": "manchester",
      "name": "The Rising Sun",
      "address": "22 Queen Street",
      "lat": 53.4794,
      "lng": -2.2477,
      "drink": "Pint of Lager",
      "par": 3,
      "type": "kneipe",
      "tags": [
        "kneipe",
        "real-ale"
      ]
    },
    {
      "id": "man-169",
      "city": "manchester",
      "name": "Sawyers Arms",
      "address": "138 Deansgate",
      "lat": 53.4807,
      "lng": -2.2483,
      "drink": "Pint of Lager",
      "par": 3,
      "type": "kneipe",
      "tags": [
        "kneipe",
        "real-ale"
      ]
    },
    {
      "id": "man-170",
      "city": "manchester",
      "name": "The Sidings",
      "address": "Broom Lane",
      "lat": 53.4419,
      "lng": -2.1846,
      "drink": "Pint of Lager",
      "par": 3,
      "type": "kneipe",
      "tags": [
        "kneipe"
      ]
    },
    {
      "id": "man-171",
      "city": "manchester",
      "name": "Peveril of the Peak",
      "address": "127 Great Bridgewater Street",
      "lat": 53.475,
      "lng": -2.2446,
      "drink": "Pint of Lager",
      "par": 3,
      "type": "kneipe",
      "tags": [
        "kneipe",
        "outdoor",
        "real-ale"
      ]
    },
    {
      "id": "man-172",
      "city": "manchester",
      "name": "Rain Bar",
      "address": "80 Great Bridgewater Street",
      "lat": 53.4747,
      "lng": -2.2452,
      "drink": "Pint of Lager",
      "par": 3,
      "type": "kneipe",
      "tags": [
        "kneipe",
        "outdoor",
        "real-ale"
      ]
    },
    {
      "id": "man-173",
      "city": "manchester",
      "name": "Nellies",
      "address": "Address unknown",
      "lat": 53.4572,
      "lng": -2.2182,
      "drink": "Pint of Lager",
      "par": 3,
      "type": "kneipe",
      "tags": [
        "kneipe"
      ]
    },
    {
      "id": "man-174",
      "city": "manchester",
      "name": "City Road Inn",
      "address": "14 Albion Street",
      "lat": 53.4741,
      "lng": -2.2484,
      "drink": "Pint of Lager",
      "par": 3,
      "type": "kneipe",
      "tags": [
        "kneipe"
      ]
    },
    {
      "id": "man-175",
      "city": "manchester",
      "name": "The George and Dragon",
      "address": "422 Manchester Road",
      "lat": 53.4288,
      "lng": -2.1755,
      "drink": "Pint of Lager",
      "par": 3,
      "type": "kneipe",
      "tags": [
        "kneipe"
      ]
    },
    {
      "id": "man-176",
      "city": "manchester",
      "name": "Sinclairs Oyster Bar",
      "address": "2 Cathedral Gates",
      "lat": 53.4846,
      "lng": -2.2439,
      "drink": "Pint of Lager",
      "par": 3,
      "type": "kneipe",
      "tags": [
        "kneipe",
        "outdoor"
      ]
    },
    {
      "id": "man-177",
      "city": "manchester",
      "name": "The Railway",
      "address": "Address unknown",
      "lat": 53.4259,
      "lng": -2.3187,
      "drink": "Pint of Lager",
      "par": 3,
      "type": "kneipe",
      "tags": [
        "kneipe",
        "outdoor",
        "real-ale"
      ]
    },
    {
      "id": "man-178",
      "city": "manchester",
      "name": "O'Connell's",
      "address": "Address unknown",
      "lat": 53.4738,
      "lng": -2.2409,
      "drink": "Pint of Guinness",
      "par": 4,
      "type": "irish",
      "tags": [
        "irish"
      ]
    },
    {
      "id": "man-179",
      "city": "manchester",
      "name": "The Matchstick Man",
      "address": "Capital Quay",
      "lat": 53.4698,
      "lng": -2.2838,
      "drink": "Pint of Lager",
      "par": 3,
      "type": "sportbar",
      "tags": [
        "sportbar",
        "outdoor"
      ]
    },
    {
      "id": "man-180",
      "city": "manchester",
      "name": "The Briton's Protection",
      "address": "50 Great Bridgewater Street",
      "lat": 53.475,
      "lng": -2.2473,
      "drink": "Pint of Lager",
      "par": 3,
      "type": "kneipe",
      "tags": [
        "kneipe"
      ]
    },
    {
      "id": "man-181",
      "city": "manchester",
      "name": "Village Inn",
      "address": "Address unknown",
      "lat": 53.4642,
      "lng": -2.3099,
      "drink": "Pint of Lager",
      "par": 3,
      "type": "kneipe",
      "tags": [
        "kneipe"
      ]
    },
    {
      "id": "man-182",
      "city": "manchester",
      "name": "The B Hive",
      "address": "Address unknown",
      "lat": 53.4973,
      "lng": -2.2873,
      "drink": "Pint of Lager",
      "par": 3,
      "type": "kneipe",
      "tags": [
        "kneipe"
      ]
    },
    {
      "id": "man-183",
      "city": "manchester",
      "name": "The Elizabethan",
      "address": "Address unknown",
      "lat": 53.4235,
      "lng": -2.1817,
      "drink": "Pint of Lager",
      "par": 3,
      "type": "kneipe",
      "tags": [
        "kneipe",
        "real-ale",
        "food"
      ]
    },
    {
      "id": "man-184",
      "city": "manchester",
      "name": "The Grafton Arms",
      "address": "Grafton Street",
      "lat": 53.4636,
      "lng": -2.2277,
      "drink": "Pint of Lager",
      "par": 3,
      "type": "kneipe",
      "tags": [
        "kneipe"
      ]
    },
    {
      "id": "man-185",
      "city": "manchester",
      "name": "Turing Tap",
      "address": "Address unknown",
      "lat": 53.4625,
      "lng": -2.2293,
      "drink": "Craft IPA Pint",
      "par": 3,
      "type": "craft",
      "tags": [
        "craft"
      ]
    },
    {
      "id": "man-186",
      "city": "manchester",
      "name": "The Wharf",
      "address": "6 Slate Wharf",
      "lat": 53.4736,
      "lng": -2.2568,
      "drink": "Pint of Lager",
      "par": 3,
      "type": "kneipe",
      "tags": [
        "kneipe"
      ]
    },
    {
      "id": "man-187",
      "city": "manchester",
      "name": "The Woodstock Arms",
      "address": "139 Barlow Moor Road",
      "lat": 53.4217,
      "lng": -2.2457,
      "drink": "Pint of Lager",
      "par": 3,
      "type": "kneipe",
      "tags": [
        "kneipe"
      ]
    },
    {
      "id": "man-188",
      "city": "manchester",
      "name": "Dover Inn",
      "address": "17 Fenney Street",
      "lat": 53.5002,
      "lng": -2.259,
      "drink": "Pint of Lager",
      "par": 3,
      "type": "kneipe",
      "tags": [
        "kneipe"
      ]
    },
    {
      "id": "man-189",
      "city": "manchester",
      "name": "The Garratt",
      "address": "127 Princess Street",
      "lat": 53.4748,
      "lng": -2.2374,
      "drink": "Pint of Lager",
      "par": 3,
      "type": "kneipe",
      "tags": [
        "kneipe"
      ]
    },
    {
      "id": "man-190",
      "city": "manchester",
      "name": "West Didsbury Club",
      "address": "173 Burton Road",
      "lat": 53.4262,
      "lng": -2.2428,
      "drink": "Craft Beer",
      "par": 3,
      "type": "szene",
      "tags": [
        "szene"
      ]
    },
    {
      "id": "man-191",
      "city": "manchester",
      "name": "The Bull's Head",
      "address": "84 London Road",
      "lat": 53.4764,
      "lng": -2.2316,
      "drink": "Pint of Lager",
      "par": 3,
      "type": "kneipe",
      "tags": [
        "kneipe",
        "real-ale",
        "food"
      ]
    },
    {
      "id": "man-192",
      "city": "manchester",
      "name": "The Salutation",
      "address": "12 Higher Chatham Street",
      "lat": 53.4686,
      "lng": -2.2393,
      "drink": "Pint of Lager",
      "par": 3,
      "type": "kneipe",
      "tags": [
        "kneipe"
      ]
    },
    {
      "id": "man-193",
      "city": "manchester",
      "name": "Coach and Horses",
      "address": "350 Eccles New Road",
      "lat": 53.4819,
      "lng": -2.304,
      "drink": "Pint of Lager",
      "par": 3,
      "type": "kneipe",
      "tags": [
        "kneipe"
      ]
    },
    {
      "id": "man-194",
      "city": "manchester",
      "name": "The City",
      "address": "Address unknown",
      "lat": 53.4845,
      "lng": -2.2334,
      "drink": "Pint of Lager",
      "par": 3,
      "type": "kneipe",
      "tags": [
        "kneipe"
      ]
    },
    {
      "id": "man-195",
      "city": "manchester",
      "name": "Wayfarer",
      "address": "Address unknown",
      "lat": 53.4846,
      "lng": -2.233,
      "drink": "Pint of Lager",
      "par": 3,
      "type": "kneipe",
      "tags": [
        "kneipe"
      ]
    },
    {
      "id": "man-196",
      "city": "manchester",
      "name": "Embassy Club",
      "address": "Address unknown",
      "lat": 53.5127,
      "lng": -2.2144,
      "drink": "Craft Beer",
      "par": 3,
      "type": "szene",
      "tags": [
        "szene"
      ]
    },
    {
      "id": "man-197",
      "city": "manchester",
      "name": "The Crown",
      "address": "Address unknown",
      "lat": 53.4231,
      "lng": -2.1839,
      "drink": "Pint of Lager",
      "par": 3,
      "type": "kneipe",
      "tags": [
        "kneipe",
        "real-ale"
      ]
    },
    {
      "id": "man-198",
      "city": "manchester",
      "name": "The Plough",
      "address": "Address unknown",
      "lat": 53.4234,
      "lng": -2.1833,
      "drink": "Pint of Lager",
      "par": 3,
      "type": "kneipe",
      "tags": [
        "kneipe",
        "real-ale",
        "food"
      ]
    },
    {
      "id": "man-199",
      "city": "manchester",
      "name": "Salisbury Ale House",
      "address": "2 Wakefield Street",
      "lat": 53.474,
      "lng": -2.2411,
      "drink": "Pint of Ale",
      "par": 4,
      "type": "brauhaus",
      "tags": [
        "brauhaus"
      ]
    },
    {
      "id": "man-200",
      "city": "manchester",
      "name": "Bricklayers Arms",
      "address": "146-148 Ordsall Lane",
      "lat": 53.4741,
      "lng": -2.2679,
      "drink": "Pint of Lager",
      "par": 3,
      "type": "kneipe",
      "tags": [
        "kneipe"
      ]
    },
    {
      "id": "man-201",
      "city": "manchester",
      "name": "Higher Openshaw Working Mens Club",
      "address": "49 Stanley Street",
      "lat": 53.4725,
      "lng": -2.1626,
      "drink": "Craft Beer",
      "par": 3,
      "type": "szene",
      "tags": [
        "szene"
      ]
    },
    {
      "id": "man-202",
      "city": "manchester",
      "name": "Bowling Green Chorlton",
      "address": "Address unknown",
      "lat": 53.4373,
      "lng": -2.283,
      "drink": "Pint of Lager",
      "par": 3,
      "type": "kneipe",
      "tags": [
        "kneipe",
        "real-ale"
      ]
    },
    {
      "id": "man-203",
      "city": "manchester",
      "name": "Beech Inn",
      "address": "72 Beech Road",
      "lat": 53.4389,
      "lng": -2.282,
      "drink": "Pint of Lager",
      "par": 3,
      "type": "kneipe",
      "tags": [
        "kneipe",
        "real-ale"
      ]
    },
    {
      "id": "man-204",
      "city": "manchester",
      "name": "Trevor Arms",
      "address": "Address unknown",
      "lat": 53.4386,
      "lng": -2.2817,
      "drink": "Pint of Lager",
      "par": 3,
      "type": "kneipe",
      "tags": [
        "kneipe",
        "real-ale"
      ]
    },
    {
      "id": "man-205",
      "city": "manchester",
      "name": "Gold Cup",
      "address": "260 Stockport Road",
      "lat": 53.4639,
      "lng": -2.2124,
      "drink": "Pint of Lager",
      "par": 3,
      "type": "kneipe",
      "tags": [
        "kneipe"
      ]
    },
    {
      "id": "man-206",
      "city": "manchester",
      "name": "Chandos Social Club",
      "address": "Chandos Ave",
      "lat": 53.4853,
      "lng": -2.3041,
      "drink": "Craft Beer",
      "par": 3,
      "type": "szene",
      "tags": [
        "szene"
      ]
    },
    {
      "id": "man-207",
      "city": "manchester",
      "name": "Union Tavern",
      "address": "105-107 Liverpool Street",
      "lat": 53.4804,
      "lng": -2.2726,
      "drink": "Pint of Lager",
      "par": 3,
      "type": "kneipe",
      "tags": [
        "kneipe"
      ]
    },
    {
      "id": "man-208",
      "city": "manchester",
      "name": "The Old Wellington Inn",
      "address": "4 Cathedral Gates",
      "lat": 53.4847,
      "lng": -2.244,
      "drink": "Pint of Lager",
      "par": 3,
      "type": "kneipe",
      "tags": [
        "kneipe",
        "outdoor",
        "real-ale",
        "food"
      ]
    },
    {
      "id": "man-209",
      "city": "manchester",
      "name": "Waggon and Horses",
      "address": "736-738 Hyde Road",
      "lat": 53.4596,
      "lng": -2.1667,
      "drink": "Pint of Lager",
      "par": 3,
      "type": "kneipe",
      "tags": [
        "kneipe",
        "outdoor"
      ]
    },
    {
      "id": "man-210",
      "city": "manchester",
      "name": "The Winston",
      "address": "Churchill Way",
      "lat": 53.4864,
      "lng": -2.2849,
      "drink": "Pint of Lager",
      "par": 3,
      "type": "kneipe",
      "tags": [
        "kneipe"
      ]
    },
    {
      "id": "man-211",
      "city": "manchester",
      "name": "Rovers Return",
      "address": "Coronation Street",
      "lat": 53.4707,
      "lng": -2.3025,
      "drink": "Pint of Lager",
      "par": 3,
      "type": "kneipe",
      "tags": [
        "kneipe"
      ]
    },
    {
      "id": "man-212",
      "city": "manchester",
      "name": "Vale Cottage Inn",
      "address": "1 Croft Bank",
      "lat": 53.4607,
      "lng": -2.1667,
      "drink": "Craft IPA Pint",
      "par": 3,
      "type": "craft",
      "tags": [
        "craft"
      ]
    },
    {
      "id": "man-213",
      "city": "manchester",
      "name": "The Plough",
      "address": "925-927 Hyde Road",
      "lat": 53.4609,
      "lng": -2.1713,
      "drink": "Pint of Lager",
      "par": 3,
      "type": "kneipe",
      "tags": [
        "kneipe"
      ]
    },
    {
      "id": "man-214",
      "city": "manchester",
      "name": "Lord Nelson",
      "address": "3 Fox Fold",
      "lat": 53.4603,
      "lng": -2.1676,
      "drink": "Pint of Lager",
      "par": 3,
      "type": "kneipe",
      "tags": [
        "kneipe",
        "outdoor"
      ]
    },
    {
      "id": "man-215",
      "city": "manchester",
      "name": "Alliance Inn",
      "address": "Address unknown",
      "lat": 53.5169,
      "lng": -2.2137,
      "drink": "Pint of Lager",
      "par": 3,
      "type": "kneipe",
      "tags": [
        "kneipe"
      ]
    },
    {
      "id": "man-216",
      "city": "manchester",
      "name": "New Lloyds Hotel",
      "address": "617 Wilbraham Road",
      "lat": 53.4424,
      "lng": -2.2811,
      "drink": "Pint of Lager",
      "par": 3,
      "type": "kneipe",
      "tags": [
        "kneipe"
      ]
    },
    {
      "id": "man-217",
      "city": "manchester",
      "name": "The Spread Eagle",
      "address": "Address unknown",
      "lat": 53.4428,
      "lng": -2.2816,
      "drink": "Pint of Lager",
      "par": 3,
      "type": "kneipe",
      "tags": [
        "kneipe"
      ]
    },
    {
      "id": "man-218",
      "city": "manchester",
      "name": "The Beagle",
      "address": "Address unknown",
      "lat": 53.4438,
      "lng": -2.2778,
      "drink": "Pint of Lager",
      "par": 3,
      "type": "kneipe",
      "tags": [
        "kneipe"
      ]
    },
    {
      "id": "man-219",
      "city": "manchester",
      "name": "The Sedge Lynn",
      "address": "21A Manchester Road",
      "lat": 53.4443,
      "lng": -2.2789,
      "drink": "Pint of Lager",
      "par": 3,
      "type": "kneipe",
      "tags": [
        "kneipe",
        "outdoor"
      ]
    },
    {
      "id": "man-220",
      "city": "manchester",
      "name": "Horse and Jockey",
      "address": "Address unknown",
      "lat": 53.4389,
      "lng": -2.2825,
      "drink": "Pint of Lager",
      "par": 3,
      "type": "kneipe",
      "tags": [
        "kneipe",
        "real-ale"
      ]
    },
    {
      "id": "man-221",
      "city": "manchester",
      "name": "The Railway",
      "address": "Address unknown",
      "lat": 53.5051,
      "lng": -2.1847,
      "drink": "Pint of Lager",
      "par": 3,
      "type": "kneipe",
      "tags": [
        "kneipe"
      ]
    },
    {
      "id": "man-222",
      "city": "manchester",
      "name": "Sun in September",
      "address": "588 Burnage Lane",
      "lat": 53.4217,
      "lng": -2.2109,
      "drink": "Pint of Lager",
      "par": 3,
      "type": "kneipe",
      "tags": [
        "kneipe"
      ]
    },
    {
      "id": "man-223",
      "city": "manchester",
      "name": "The Millgate",
      "address": "Ashton Road West",
      "lat": 53.5074,
      "lng": -2.1586,
      "drink": "Pint of Lager",
      "par": 3,
      "type": "kneipe",
      "tags": [
        "kneipe"
      ]
    },
    {
      "id": "man-224",
      "city": "manchester",
      "name": "Hind's Head",
      "address": "Address unknown",
      "lat": 53.4236,
      "lng": -2.1698,
      "drink": "Pint of Lager",
      "par": 3,
      "type": "kneipe",
      "tags": [
        "kneipe"
      ]
    },
    {
      "id": "man-225",
      "city": "manchester",
      "name": "The Levenshulme",
      "address": "959 Stockport Road",
      "lat": 53.4416,
      "lng": -2.1892,
      "drink": "Pint of Lager",
      "par": 3,
      "type": "kneipe",
      "tags": [
        "kneipe",
        "outdoor"
      ]
    },
    {
      "id": "man-226",
      "city": "manchester",
      "name": "Carlton Club",
      "address": "113 Carlton Road",
      "lat": 53.4516,
      "lng": -2.2633,
      "drink": "Craft Beer",
      "par": 3,
      "type": "szene",
      "tags": [
        "szene",
        "outdoor"
      ]
    },
    {
      "id": "man-227",
      "city": "manchester",
      "name": "The Horseshoe",
      "address": "14 Chapel Street",
      "lat": 53.4443,
      "lng": -2.1907,
      "drink": "Pint of Lager",
      "par": 3,
      "type": "kneipe",
      "tags": [
        "kneipe"
      ]
    },
    {
      "id": "man-228",
      "city": "manchester",
      "name": "The Townley",
      "address": "Albert Street",
      "lat": 53.4793,
      "lng": -2.2019,
      "drink": "Pint of Lager",
      "par": 3,
      "type": "kneipe",
      "tags": [
        "kneipe"
      ]
    },
    {
      "id": "man-229",
      "city": "manchester",
      "name": "Jackson's Boat",
      "address": "28 Rifle Road",
      "lat": 53.4299,
      "lng": -2.2871,
      "drink": "Pint of Lager",
      "par": 3,
      "type": "kneipe",
      "tags": [
        "kneipe",
        "outdoor",
        "real-ale"
      ]
    },
    {
      "id": "man-230",
      "city": "manchester",
      "name": "Kings Ransom",
      "address": "Britannia Road",
      "lat": 53.4249,
      "lng": -2.3187,
      "drink": "Pint of Lager",
      "par": 3,
      "type": "kneipe",
      "tags": [
        "kneipe",
        "outdoor",
        "real-ale"
      ]
    },
    {
      "id": "man-231",
      "city": "manchester",
      "name": "Sadler's Cat",
      "address": "Sadlers Yard",
      "lat": 53.4868,
      "lng": -2.2401,
      "drink": "Pint of Lager",
      "par": 3,
      "type": "kneipe",
      "tags": [
        "kneipe"
      ]
    },
    {
      "id": "man-232",
      "city": "manchester",
      "name": "Station Hop",
      "address": "815 Stockport Road",
      "lat": 53.4453,
      "lng": -2.1912,
      "drink": "Craft IPA Pint",
      "par": 3,
      "type": "craft",
      "tags": [
        "craft"
      ]
    },
    {
      "id": "man-233",
      "city": "manchester",
      "name": "Strawberry Duck",
      "address": "Address unknown",
      "lat": 53.48,
      "lng": -2.1723,
      "drink": "Pint of Lager",
      "par": 3,
      "type": "kneipe",
      "tags": [
        "kneipe"
      ]
    },
    {
      "id": "man-234",
      "city": "manchester",
      "name": "Red Lion",
      "address": "Address unknown",
      "lat": 53.4313,
      "lng": -2.2291,
      "drink": "Pint of Lager",
      "par": 3,
      "type": "kneipe",
      "tags": [
        "kneipe"
      ]
    },
    {
      "id": "man-235",
      "city": "manchester",
      "name": "The Claremont",
      "address": "124 Claremont Road",
      "lat": 53.4532,
      "lng": -2.2438,
      "drink": "Pint of Lager",
      "par": 3,
      "type": "kneipe",
      "tags": [
        "kneipe"
      ]
    },
    {
      "id": "man-236",
      "city": "manchester",
      "name": "Houldsworth Arms",
      "address": "Address unknown",
      "lat": 53.4373,
      "lng": -2.16,
      "drink": "Pint of Lager",
      "par": 3,
      "type": "kneipe",
      "tags": [
        "kneipe",
        "outdoor"
      ]
    },
    {
      "id": "man-237",
      "city": "manchester",
      "name": "The Prince of Wales",
      "address": "Address unknown",
      "lat": 53.4661,
      "lng": -2.1631,
      "drink": "Craft IPA Pint",
      "par": 3,
      "type": "craft",
      "tags": [
        "craft",
        "outdoor"
      ]
    },
    {
      "id": "man-238",
      "city": "manchester",
      "name": "Top Derby",
      "address": "Address unknown",
      "lat": 53.514,
      "lng": -2.2136,
      "drink": "Pint of Lager",
      "par": 3,
      "type": "kneipe",
      "tags": [
        "kneipe"
      ]
    },
    {
      "id": "man-239",
      "city": "manchester",
      "name": "Welcome Inn",
      "address": "Robert Hall Street",
      "lat": 53.4736,
      "lng": -2.2721,
      "drink": "Pint of Lager",
      "par": 3,
      "type": "kneipe",
      "tags": [
        "kneipe"
      ]
    },
    {
      "id": "man-240",
      "city": "manchester",
      "name": "Metro's Sports & Social Club",
      "address": "Moss Road",
      "lat": 53.4512,
      "lng": -2.3107,
      "drink": "Pint of Guinness",
      "par": 4,
      "type": "irish",
      "tags": [
        "irish"
      ]
    },
    {
      "id": "man-241",
      "city": "manchester",
      "name": "Egerton Arms",
      "address": "2 Gore Street",
      "lat": 53.4832,
      "lng": -2.2554,
      "drink": "Pint of Lager",
      "par": 3,
      "type": "kneipe",
      "tags": [
        "kneipe"
      ]
    },
    {
      "id": "man-242",
      "city": "manchester",
      "name": "Weaste & Seedley Social Club",
      "address": "168A Weaste Lane",
      "lat": 53.487,
      "lng": -2.3085,
      "drink": "Craft Beer",
      "par": 3,
      "type": "szene",
      "tags": [
        "szene"
      ]
    },
    {
      "id": "man-243",
      "city": "manchester",
      "name": "The Railway",
      "address": "Address unknown",
      "lat": 53.4721,
      "lng": -2.1506,
      "drink": "Pint of Lager",
      "par": 3,
      "type": "kneipe",
      "tags": [
        "kneipe",
        "outdoor"
      ]
    },
    {
      "id": "man-244",
      "city": "manchester",
      "name": "The Oast House",
      "address": "Crown Square",
      "lat": 53.4806,
      "lng": -2.2512,
      "drink": "Pint of Lager",
      "par": 3,
      "type": "kneipe",
      "tags": [
        "kneipe"
      ]
    },
    {
      "id": "man-245",
      "city": "manchester",
      "name": "Bridge Inn",
      "address": "Address unknown",
      "lat": 53.4306,
      "lng": -2.313,
      "drink": "Pint of Lager",
      "par": 3,
      "type": "kneipe",
      "tags": [
        "kneipe"
      ]
    },
    {
      "id": "man-246",
      "city": "manchester",
      "name": "The Old Nags Head",
      "address": "19 Jackson's Row",
      "lat": 53.4792,
      "lng": -2.2481,
      "drink": "Pint of Lager",
      "par": 3,
      "type": "kneipe",
      "tags": [
        "kneipe"
      ]
    },
    {
      "id": "man-247",
      "city": "manchester",
      "name": "Sir Ralph Abercromby",
      "address": "35 Bootle Street",
      "lat": 53.4785,
      "lng": -2.2478,
      "drink": "Pint of Lager",
      "par": 3,
      "type": "kneipe",
      "tags": [
        "kneipe"
      ]
    },
    {
      "id": "man-248",
      "city": "manchester",
      "name": "The Black Friar",
      "address": "41-43 Blackfriars Road",
      "lat": 53.4865,
      "lng": -2.2534,
      "drink": "Pint of Lager",
      "par": 3,
      "type": "kneipe",
      "tags": [
        "kneipe"
      ]
    },
    {
      "id": "man-249",
      "city": "manchester",
      "name": "White Lion",
      "address": "43 Liverpool Road",
      "lat": 53.476,
      "lng": -2.2529,
      "drink": "Pint of Lager",
      "par": 3,
      "type": "kneipe",
      "tags": [
        "kneipe",
        "outdoor"
      ]
    },
    {
      "id": "man-250",
      "city": "manchester",
      "name": "Bradford Inn",
      "address": "112/114 Bradford Road",
      "lat": 53.4873,
      "lng": -2.2098,
      "drink": "Pint of Lager",
      "par": 3,
      "type": "kneipe",
      "tags": [
        "kneipe"
      ]
    },
    {
      "id": "man-251",
      "city": "manchester",
      "name": "The Corner Shop",
      "address": "Rylance Street",
      "lat": 53.4797,
      "lng": -2.2052,
      "drink": "Craft IPA Pint",
      "par": 3,
      "type": "craft",
      "tags": [
        "craft"
      ]
    },
    {
      "id": "man-252",
      "city": "manchester",
      "name": "Steelworks Tavern",
      "address": "247 Gorton Lane",
      "district": "gorton",
      "lat": 53.4677,
      "lng": -2.1816,
      "drink": "Pint of Lager",
      "par": 3,
      "type": "kneipe",
      "tags": [
        "kneipe"
      ]
    },
    {
      "id": "man-253",
      "city": "manchester",
      "name": "Bridge Inn",
      "address": "Clayton Lane",
      "lat": 53.4811,
      "lng": -2.184,
      "drink": "Pint of Lager",
      "par": 3,
      "type": "kneipe",
      "tags": [
        "kneipe"
      ]
    },
    {
      "id": "man-254",
      "city": "manchester",
      "name": "The Victoria",
      "address": "30 Croft Street",
      "lat": 53.4824,
      "lng": -2.1849,
      "drink": "Pint of Lager",
      "par": 3,
      "type": "kneipe",
      "tags": [
        "kneipe"
      ]
    },
    {
      "id": "man-255",
      "city": "manchester",
      "name": "The Royal Oak",
      "address": "496 Oldham Road",
      "district": "failsworth",
      "lat": 53.5114,
      "lng": -2.1557,
      "drink": "Pint of Lager",
      "par": 3,
      "type": "kneipe",
      "tags": [
        "kneipe"
      ]
    },
    {
      "id": "man-256",
      "city": "manchester",
      "name": "The Carousel",
      "address": "Address unknown",
      "lat": 53.4269,
      "lng": -2.1539,
      "drink": "Pint of Lager",
      "par": 3,
      "type": "kneipe",
      "tags": [
        "kneipe"
      ]
    },
    {
      "id": "man-257",
      "city": "manchester",
      "name": "Ashley Brook",
      "address": "Address unknown",
      "lat": 53.4839,
      "lng": -2.2984,
      "drink": "Pint of Lager",
      "par": 3,
      "type": "kneipe",
      "tags": [
        "kneipe"
      ]
    },
    {
      "id": "man-258",
      "city": "manchester",
      "name": "The Anglers Arms",
      "address": "Wrigley Head",
      "lat": 53.5153,
      "lng": -2.1538,
      "drink": "Pint of Lager",
      "par": 3,
      "type": "kneipe",
      "tags": [
        "kneipe"
      ]
    },
    {
      "id": "man-259",
      "city": "manchester",
      "name": "Hare & Hounds",
      "address": "187 Abbey Hey Lane",
      "lat": 53.4686,
      "lng": -2.1558,
      "drink": "Pint of Lager",
      "par": 3,
      "type": "kneipe",
      "tags": [
        "kneipe",
        "outdoor"
      ]
    },
    {
      "id": "man-260",
      "city": "manchester",
      "name": "The Royal Oak",
      "address": "114 Cross Lane",
      "lat": 53.4633,
      "lng": -2.1666,
      "drink": "Pint of Lager",
      "par": 3,
      "type": "kneipe",
      "tags": [
        "kneipe",
        "outdoor"
      ]
    },
    {
      "id": "man-261",
      "city": "manchester",
      "name": "Oddfellows Arms",
      "address": "Address unknown",
      "lat": 53.4724,
      "lng": -2.1615,
      "drink": "Pint of Lager",
      "par": 3,
      "type": "kneipe",
      "tags": [
        "kneipe",
        "outdoor"
      ]
    },
    {
      "id": "man-262",
      "city": "manchester",
      "name": "The Cotton Tree",
      "address": "Address unknown",
      "lat": 53.4635,
      "lng": -2.1676,
      "drink": "Pint of Lager",
      "par": 3,
      "type": "kneipe",
      "tags": [
        "kneipe",
        "outdoor"
      ]
    },
    {
      "id": "man-263",
      "city": "manchester",
      "name": "The Angel",
      "address": "Address unknown",
      "lat": 53.4639,
      "lng": -2.1717,
      "drink": "Pint of Lager",
      "par": 3,
      "type": "kneipe",
      "tags": [
        "kneipe"
      ]
    },
    {
      "id": "man-264",
      "city": "manchester",
      "name": "Lord Raglan",
      "address": "1290 Ashton Old Road",
      "lat": 53.4727,
      "lng": -2.1639,
      "drink": "Pint of Lager",
      "par": 3,
      "type": "kneipe",
      "tags": [
        "kneipe"
      ]
    },
    {
      "id": "man-265",
      "city": "manchester",
      "name": "Friendship Tavern",
      "address": "786-788 Hyde Road",
      "lat": 53.4591,
      "lng": -2.1628,
      "drink": "Pint of Lager",
      "par": 3,
      "type": "kneipe",
      "tags": [
        "kneipe",
        "outdoor"
      ]
    },
    {
      "id": "man-266",
      "city": "manchester",
      "name": "The Robin Hood (closed)",
      "address": "Address unknown",
      "lat": 53.4455,
      "lng": -2.3141,
      "drink": "Pint of Lager",
      "par": 3,
      "type": "kneipe",
      "tags": [
        "kneipe"
      ]
    },
    {
      "id": "man-267",
      "city": "manchester",
      "name": "Mare and Foal",
      "address": "Ashton Road West",
      "lat": 53.507,
      "lng": -2.1605,
      "drink": "Pint of Lager",
      "par": 3,
      "type": "kneipe",
      "tags": [
        "kneipe"
      ]
    },
    {
      "id": "man-268",
      "city": "manchester",
      "name": "Crown & Cushion",
      "address": "488 Oldham Road",
      "district": "failsworth",
      "lat": 53.511,
      "lng": -2.1564,
      "drink": "Pint of Lager",
      "par": 3,
      "type": "kneipe",
      "tags": [
        "kneipe"
      ]
    },
    {
      "id": "man-269",
      "city": "manchester",
      "name": "Church Inn",
      "address": "477 Oldham Road",
      "district": "failsworth",
      "lat": 53.5118,
      "lng": -2.1558,
      "drink": "Pint of Lager",
      "par": 3,
      "type": "kneipe",
      "tags": [
        "kneipe"
      ]
    },
    {
      "id": "man-270",
      "city": "manchester",
      "name": "The Mowbray Arms",
      "address": "330 Oldham Road",
      "district": "failsworth",
      "lat": 53.5088,
      "lng": -2.1621,
      "drink": "Pint of Lager",
      "par": 3,
      "type": "kneipe",
      "tags": [
        "kneipe"
      ]
    },
    {
      "id": "man-271",
      "city": "manchester",
      "name": "The Vulcan",
      "address": "Gorton Lane",
      "lat": 53.4664,
      "lng": -2.176,
      "drink": "Pint of Lager",
      "par": 3,
      "type": "kneipe",
      "tags": [
        "kneipe"
      ]
    },
    {
      "id": "man-001",
      "city": "manchester",
      "name": "Ducie Arms",
      "address": "Address unknown",
      "lat": 53.4632,
      "lng": -2.235,
      "drink": "Pint of Lager",
      "par": 3,
      "type": "kneipe",
      "tags": [
        "kneipe"
      ]
    },
    {
      "id": "man-002",
      "city": "manchester",
      "name": "Kro Bar",
      "address": "325 Oxford Road",
      "lat": 53.4649,
      "lng": -2.2319,
      "drink": "Pint of Lager",
      "par": 3,
      "type": "kneipe",
      "tags": [
        "kneipe",
        "real-ale",
        "danish"
      ]
    },
    {
      "id": "man-003",
      "city": "manchester",
      "name": "The Temple Inn",
      "address": "Address unknown",
      "lat": 53.4205,
      "lng": -2.3052,
      "drink": "Pint of Lager",
      "par": 3,
      "type": "kneipe",
      "tags": [
        "kneipe",
        "real-ale"
      ]
    },
    {
      "id": "man-004",
      "city": "manchester",
      "name": "Sandbar",
      "address": "120 Grosvenor Street",
      "lat": 53.4707,
      "lng": -2.236,
      "drink": "Pint of Lager",
      "par": 3,
      "type": "kneipe",
      "tags": [
        "kneipe",
        "real-ale"
      ]
    },
    {
      "id": "man-005",
      "city": "manchester",
      "name": "The Flour and Flagon",
      "address": "Grosvenor Street",
      "lat": 53.4705,
      "lng": -2.2365,
      "drink": "Pint of Lager",
      "par": 3,
      "type": "kneipe",
      "tags": [
        "kneipe",
        "food"
      ]
    },
    {
      "id": "man-006",
      "city": "manchester",
      "name": "Oxnoble",
      "address": "71 Liverpool Road",
      "lat": 53.4763,
      "lng": -2.254,
      "drink": "Pint of Lager",
      "par": 3,
      "type": "kneipe",
      "tags": [
        "kneipe",
        "outdoor"
      ]
    },
    {
      "id": "man-007",
      "city": "manchester",
      "name": "The Big Hands",
      "address": "Address unknown",
      "lat": 53.4629,
      "lng": -2.2304,
      "drink": "Pint of Lager",
      "par": 3,
      "type": "kneipe",
      "tags": [
        "kneipe"
      ]
    },
    {
      "id": "man-008",
      "city": "manchester",
      "name": "The Ford Madox Brown",
      "address": "1 Wilmslow Park Wilmslow Road",
      "lat": 53.4582,
      "lng": -2.2267,
      "drink": "Pint of Lager",
      "par": 3,
      "type": "kneipe",
      "tags": [
        "kneipe",
        "outdoor",
        "real-ale"
      ]
    },
    {
      "id": "man-009",
      "city": "manchester",
      "name": "Albert Wilson",
      "address": "Wilmslow Road",
      "lat": 53.4344,
      "lng": -2.2281,
      "drink": "Pint of Lager",
      "par": 3,
      "type": "kneipe",
      "tags": [
        "kneipe"
      ]
    },
    {
      "id": "man-010",
      "city": "manchester",
      "name": "The Orion",
      "address": "Address unknown",
      "lat": 53.4334,
      "lng": -2.2306,
      "drink": "Pint of Lager",
      "par": 3,
      "type": "kneipe",
      "tags": [
        "kneipe"
      ]
    },
    {
      "id": "man-011",
      "city": "manchester",
      "name": "The Hilary Step",
      "address": "Address unknown",
      "lat": 53.4517,
      "lng": -2.2694,
      "drink": "Pint of Lager",
      "par": 3,
      "type": "kneipe",
      "tags": [
        "kneipe",
        "real-ale"
      ]
    },
    {
      "id": "man-012",
      "city": "manchester",
      "name": "Jolly Carter",
      "address": "Address unknown",
      "lat": 53.48,
      "lng": -2.1566,
      "drink": "Pint of Lager",
      "par": 3,
      "type": "kneipe",
      "tags": [
        "kneipe"
      ]
    },
    {
      "id": "man-013",
      "city": "manchester",
      "name": "Royal Oak",
      "address": "Address unknown",
      "lat": 53.4802,
      "lng": -2.1523,
      "drink": "Pint of Lager",
      "par": 3,
      "type": "kneipe",
      "tags": [
        "kneipe"
      ]
    },
    {
      "id": "man-014",
      "city": "manchester",
      "name": "La Fardy",
      "address": "604-606 Oldham Road",
      "district": "failsworth",
      "lat": 53.5139,
      "lng": -2.152,
      "drink": "Pint of Lager",
      "par": 3,
      "type": "kneipe",
      "tags": [
        "kneipe"
      ]
    },
    {
      "id": "man-015",
      "city": "manchester",
      "name": "Dutch Birds Inn",
      "address": "636-638 Oldham Road",
      "district": "failsworth",
      "lat": 53.5146,
      "lng": -2.151,
      "drink": "Pint of Lager",
      "par": 3,
      "type": "kneipe",
      "tags": [
        "kneipe"
      ]
    },
    {
      "id": "man-016",
      "city": "manchester",
      "name": "The Old Monkey",
      "address": "90-92 Portland Street",
      "lat": 53.4777,
      "lng": -2.2401,
      "drink": "Pint of Lager",
      "par": 3,
      "type": "kneipe",
      "tags": [
        "kneipe",
        "real-ale"
      ]
    },
    {
      "id": "man-017",
      "city": "manchester",
      "name": "Red Lion",
      "address": "Address unknown",
      "lat": 53.4566,
      "lng": -2.2157,
      "drink": "Pint of Lager",
      "par": 3,
      "type": "kneipe",
      "tags": [
        "kneipe"
      ]
    },
    {
      "id": "man-018",
      "city": "manchester",
      "name": "The Crown & Kettle",
      "address": "2 Oldham Road",
      "lat": 53.4848,
      "lng": -2.2324,
      "drink": "Pint of Lager",
      "par": 3,
      "type": "kneipe",
      "tags": [
        "kneipe",
        "real-ale",
        "food"
      ]
    },
    {
      "id": "man-019",
      "city": "manchester",
      "name": "Apsley Cottage",
      "address": "1 Apsley Grove",
      "lat": 53.4693,
      "lng": -2.2216,
      "drink": "Pint of Lager",
      "par": 3,
      "type": "kneipe",
      "tags": [
        "kneipe"
      ]
    },
    {
      "id": "man-020",
      "city": "manchester",
      "name": "Marble Arch Inn",
      "address": "73 Rochdale Road",
      "lat": 53.4882,
      "lng": -2.2323,
      "drink": "Pint of Lager",
      "par": 3,
      "type": "kneipe",
      "tags": [
        "kneipe",
        "real-ale",
        "food"
      ]
    },
    {
      "id": "man-021",
      "city": "manchester",
      "name": "Lammars",
      "address": "57 Hilton Street",
      "lat": 53.4811,
      "lng": -2.2315,
      "drink": "Pint of Lager",
      "par": 3,
      "type": "kneipe",
      "tags": [
        "kneipe"
      ]
    },
    {
      "id": "man-022",
      "city": "manchester",
      "name": "Bay Horse PH (Closed)",
      "address": "Address unknown",
      "lat": 53.492,
      "lng": -2.1654,
      "drink": "Pint of Lager",
      "par": 3,
      "type": "kneipe",
      "tags": [
        "kneipe"
      ]
    },
    {
      "id": "man-023",
      "city": "manchester",
      "name": "Crown & Anchor",
      "address": "41 Hilton Street",
      "lat": 53.4819,
      "lng": -2.2322,
      "drink": "Pint of Lager",
      "par": 3,
      "type": "kneipe",
      "tags": [
        "kneipe"
      ]
    },
    {
      "id": "man-024",
      "city": "manchester",
      "name": "The Goose",
      "address": "29 Bloom Street",
      "lat": 53.4774,
      "lng": -2.2373,
      "drink": "Pint of Lager",
      "par": 3,
      "type": "kneipe",
      "tags": [
        "kneipe",
        "real-ale"
      ]
    },
    {
      "id": "man-025",
      "city": "manchester",
      "name": "The Waldorf",
      "address": "12 Gore Street",
      "lat": 53.4796,
      "lng": -2.2339,
      "drink": "Pint of Lager",
      "par": 3,
      "type": "kneipe",
      "tags": [
        "kneipe"
      ]
    },
    {
      "id": "man-026",
      "city": "manchester",
      "name": "The Smithfield Market Tavern",
      "address": "33-37 Swan Street",
      "lat": 53.4854,
      "lng": -2.2344,
      "drink": "Pint of Lager",
      "par": 3,
      "type": "kneipe",
      "tags": [
        "kneipe",
        "real-ale"
      ]
    },
    {
      "id": "man-027",
      "city": "manchester",
      "name": "The Rose & Monkey Hotel",
      "address": "31 Swan Street",
      "lat": 53.4853,
      "lng": -2.2343,
      "drink": "Pint of Lager",
      "par": 3,
      "type": "kneipe",
      "tags": [
        "kneipe",
        "real-ale"
      ]
    },
    {
      "id": "man-028",
      "city": "manchester",
      "name": "The Northern",
      "address": "Oldham Street",
      "lat": 53.4835,
      "lng": -2.2347,
      "drink": "Pint of Lager",
      "par": 3,
      "type": "kneipe",
      "tags": [
        "kneipe",
        "real-ale"
      ]
    },
    {
      "id": "man-029",
      "city": "manchester",
      "name": "Grey Horse",
      "address": "80 Portland Street",
      "lat": 53.4779,
      "lng": -2.2398,
      "drink": "Pint of Lager",
      "par": 3,
      "type": "kneipe",
      "tags": [
        "kneipe",
        "real-ale"
      ]
    },
    {
      "id": "man-030",
      "city": "manchester",
      "name": "The Lost Dene",
      "address": "144 Deansgate",
      "lat": 53.4805,
      "lng": -2.2484,
      "drink": "Pint of Lager",
      "par": 3,
      "type": "kneipe",
      "tags": [
        "kneipe"
      ]
    },
    {
      "id": "man-031",
      "city": "manchester",
      "name": "Kings Arms",
      "address": "11 Bloom Street",
      "lat": 53.4841,
      "lng": -2.256,
      "drink": "Pint of Lager",
      "par": 3,
      "type": "kneipe",
      "tags": [
        "kneipe",
        "real-ale"
      ]
    },
    {
      "id": "man-032",
      "city": "manchester",
      "name": "Mr Thomas's Chop House",
      "address": "52 Cross Street",
      "lat": 53.4813,
      "lng": -2.2449,
      "drink": "Craft IPA Pint",
      "par": 3,
      "type": "craft",
      "tags": [
        "craft",
        "real-ale",
        "food"
      ]
    },
    {
      "id": "man-033",
      "city": "manchester",
      "name": "The Paramount",
      "address": "33-35 Oxford Street",
      "lat": 53.4765,
      "lng": -2.2425,
      "drink": "Pint of Lager",
      "par": 3,
      "type": "kneipe",
      "tags": [
        "kneipe",
        "real-ale",
        "food"
      ]
    },
    {
      "id": "man-034",
      "city": "manchester",
      "name": "The Bay Horse Tavern",
      "address": "35-37 Thomas Street",
      "lat": 53.4842,
      "lng": -2.2368,
      "drink": "Pint of Lager",
      "par": 3,
      "type": "kneipe",
      "tags": [
        "kneipe"
      ]
    },
    {
      "id": "man-035",
      "city": "manchester",
      "name": "Egerton Inn",
      "address": "Address unknown",
      "lat": 53.5147,
      "lng": -2.2433,
      "drink": "Pint of Lager",
      "par": 3,
      "type": "kneipe",
      "tags": [
        "kneipe"
      ]
    },
    {
      "id": "man-036",
      "city": "manchester",
      "name": "New Crown Inn",
      "address": "Address unknown",
      "lat": 53.5014,
      "lng": -2.1811,
      "drink": "Pint of Lager",
      "par": 3,
      "type": "kneipe",
      "tags": [
        "kneipe"
      ]
    },
    {
      "id": "man-037",
      "city": "manchester",
      "name": "Nelson Tavern",
      "address": "Address unknown",
      "lat": 53.4958,
      "lng": -2.1612,
      "drink": "Pint of Lager",
      "par": 3,
      "type": "kneipe",
      "tags": [
        "kneipe"
      ]
    },
    {
      "id": "man-038",
      "city": "manchester",
      "name": "The Moon Under Water",
      "address": "68-74 Deansgate",
      "lat": 53.4828,
      "lng": -2.2469,
      "drink": "Pint of Lager",
      "par": 3,
      "type": "kneipe",
      "tags": [
        "kneipe",
        "real-ale",
        "food"
      ]
    },
    {
      "id": "man-039",
      "city": "manchester",
      "name": "Grand Central",
      "address": "Address unknown",
      "lat": 53.4741,
      "lng": -2.2408,
      "drink": "Pint of Lager",
      "par": 3,
      "type": "kneipe",
      "tags": [
        "kneipe"
      ]
    },
    {
      "id": "man-040",
      "city": "manchester",
      "name": "The New Union",
      "address": "111 Princess Street",
      "lat": 53.4763,
      "lng": -2.2385,
      "drink": "Pint of Lager",
      "par": 3,
      "type": "kneipe",
      "tags": [
        "kneipe"
      ]
    },
    {
      "id": "man-041",
      "city": "manchester",
      "name": "The Church",
      "address": "37 Chorlton Street",
      "lat": 53.4777,
      "lng": -2.236,
      "drink": "Pint of Lager",
      "par": 3,
      "type": "kneipe",
      "tags": [
        "kneipe"
      ]
    },
    {
      "id": "man-042",
      "city": "manchester",
      "name": "Red Lion",
      "address": "279 Bolton Road",
      "lat": 53.499,
      "lng": -2.3055,
      "drink": "Pint of Lager",
      "par": 3,
      "type": "kneipe",
      "tags": [
        "kneipe"
      ]
    },
    {
      "id": "man-043",
      "city": "manchester",
      "name": "The Wellington Hotel",
      "address": "345 Bolton Road",
      "lat": 53.4998,
      "lng": -2.3073,
      "drink": "Pint of Lager",
      "par": 3,
      "type": "kneipe",
      "tags": [
        "kneipe"
      ]
    },
    {
      "id": "man-044",
      "city": "manchester",
      "name": "The Quadrant",
      "address": "Address unknown",
      "lat": 53.4531,
      "lng": -2.2868,
      "drink": "Pint of Lager",
      "par": 3,
      "type": "kneipe",
      "tags": [
        "kneipe"
      ]
    },
    {
      "id": "man-045",
      "city": "manchester",
      "name": "Waggon and Horses",
      "address": "367 Bolton Road",
      "lat": 53.5002,
      "lng": -2.3081,
      "drink": "Pint of Lager",
      "par": 3,
      "type": "kneipe",
      "tags": [
        "kneipe"
      ]
    },
    {
      "id": "man-046",
      "city": "manchester",
      "name": "The Friendship Inn",
      "address": "Address unknown",
      "lat": 53.4405,
      "lng": -2.2191,
      "drink": "Pint of Lager",
      "par": 3,
      "type": "kneipe",
      "tags": [
        "kneipe"
      ]
    },
    {
      "id": "man-047",
      "city": "manchester",
      "name": "The Broadway",
      "address": "Address unknown",
      "lat": 53.5166,
      "lng": -2.1687,
      "drink": "Pint of Lager",
      "par": 3,
      "type": "kneipe",
      "tags": [
        "kneipe"
      ]
    },
    {
      "id": "man-048",
      "city": "manchester",
      "name": "The Trafford",
      "address": "Address unknown",
      "lat": 53.4611,
      "lng": -2.2878,
      "drink": "Pint of Lager",
      "par": 3,
      "type": "kneipe",
      "tags": [
        "kneipe"
      ]
    },
    {
      "id": "man-049",
      "city": "manchester",
      "name": "Cask",
      "address": "29 Liverpool Road",
      "lat": 53.4759,
      "lng": -2.2524,
      "drink": "Pint of Lager",
      "par": 3,
      "type": "kneipe",
      "tags": [
        "kneipe",
        "real-ale"
      ]
    },
    {
      "id": "man-050",
      "city": "manchester",
      "name": "Micro Bar",
      "address": "Address unknown",
      "lat": 53.4838,
      "lng": -2.239,
      "drink": "Pint of Lager",
      "par": 3,
      "type": "kneipe",
      "tags": [
        "kneipe",
        "real-ale"
      ]
    },
    {
      "id": "man-051",
      "city": "manchester",
      "name": "Bar Fringe",
      "address": "8 Swan Street",
      "lat": 53.4851,
      "lng": -2.2333,
      "drink": "Pint of Lager",
      "par": 3,
      "type": "kneipe",
      "tags": [
        "kneipe",
        "real-ale"
      ]
    },
    {
      "id": "man-052",
      "city": "manchester",
      "name": "Blue Bell Inn",
      "address": "170 Barlow Road",
      "lat": 53.445,
      "lng": -2.1841,
      "drink": "Pint of Lager",
      "par": 3,
      "type": "kneipe",
      "tags": [
        "kneipe",
        "outdoor"
      ]
    },
    {
      "id": "man-053",
      "city": "manchester",
      "name": "The Bishop Blaize",
      "address": "Address unknown",
      "lat": 53.4612,
      "lng": -2.2892,
      "drink": "Craft IPA Pint",
      "par": 3,
      "type": "craft",
      "tags": [
        "craft",
        "regional"
      ]
    },
    {
      "id": "man-054",
      "city": "manchester",
      "name": "Gorse Hill",
      "address": "Address unknown",
      "lat": 53.4543,
      "lng": -2.299,
      "drink": "Pint of Lager",
      "par": 3,
      "type": "kneipe",
      "tags": [
        "kneipe"
      ]
    },
    {
      "id": "man-055",
      "city": "manchester",
      "name": "The Molly House",
      "address": "26 Richmond Street",
      "lat": 53.4773,
      "lng": -2.2371,
      "drink": "Craft IPA Pint",
      "par": 3,
      "type": "craft",
      "tags": [
        "craft",
        "real-ale",
        "tapas",
        "food"
      ]
    },
    {
      "id": "man-056",
      "city": "manchester",
      "name": "New York New York",
      "address": "94 Bloom Street",
      "lat": 53.4769,
      "lng": -2.2385,
      "drink": "Pint of Lager",
      "par": 3,
      "type": "kneipe",
      "tags": [
        "kneipe"
      ]
    },
    {
      "id": "man-057",
      "city": "manchester",
      "name": "The Eagle",
      "address": "15 Bloom Street",
      "lat": 53.4777,
      "lng": -2.2369,
      "drink": "Pint of Lager",
      "par": 3,
      "type": "kneipe",
      "tags": [
        "kneipe"
      ]
    },
    {
      "id": "man-058",
      "city": "manchester",
      "name": "EVA",
      "address": "27 Sackville Street",
      "lat": 53.4773,
      "lng": -2.2375,
      "drink": "Pint of Lager",
      "par": 3,
      "type": "kneipe",
      "tags": [
        "kneipe"
      ]
    },
    {
      "id": "man-059",
      "city": "manchester",
      "name": "Port Street Beer House",
      "address": "39-41 Port Street",
      "lat": 53.4821,
      "lng": -2.2319,
      "drink": "Pint of Lager",
      "par": 3,
      "type": "kneipe",
      "tags": [
        "kneipe",
        "outdoor",
        "real-ale"
      ]
    },
    {
      "id": "man-060",
      "city": "manchester",
      "name": "O'Shea's",
      "address": "80 Princess Street",
      "lat": 53.4755,
      "lng": -2.2381,
      "drink": "Pint of Guinness",
      "par": 4,
      "type": "irish",
      "tags": [
        "irish"
      ]
    },
    {
      "id": "man-061",
      "city": "manchester",
      "name": "The New Oxford",
      "address": "11 Bexley Square",
      "lat": 53.4837,
      "lng": -2.2593,
      "drink": "Pint of Lager",
      "par": 3,
      "type": "kneipe",
      "tags": [
        "kneipe",
        "real-ale"
      ]
    },